"","city","latitude","longitude","price"
"1","Kraków",50.077778,19.784722,12
"2","Eindhoven",51.45,5.374444,12
"3","City of Brussels",50.459167,4.453889,12
"4","Paris",49.454444,2.112778,12
"5","Bologna",44.530833,11.296944,15
"6","Edinburgh",55.95,-3.3725,19
"7","Pisa",43.682778,10.395556,20
"8","Rome",41.798889,12.595,20
"9","London",51.885,0.235,20
"10","Amman",31.7225,35.993333,20
"11","Marrakesh",31.606944,-8.036389,20
"12","Budapest",47.436944,19.255556,22
"13","Nuremberg",49.498611,11.066944,22
"14","Oslo",59.186667,10.258611,22
"15","Banja Luka",44.941389,17.2975,23
"16","Faro",37.014444,-7.965833,23
"17","Copenhagen",55.620278,12.650278,23
"18","Lamezia Terme",38.908333,16.241667,23
"19","Nador",34.988889,-3.028333,23
"20","Lisbon",38.774167,-9.134167,23
"21","Toulouse",43.635,1.367778,23
"22","Carcassonne",43.215833,2.308611,23
"23","Perpignan",42.740833,2.869722,23
"24","Turin",45.2025,7.649444,23
"25","Biarritz",43.468333,-1.531111,23
"26","Santander",43.426944,-3.82,23
"27","Bordeaux",44.828611,-0.715278,23
"28","Wrocław",51.102778,16.885833,23
"29","Marseille",43.436667,5.215,23
"30","Valencia",39.489444,-0.481667,23
"31","Nîmes",43.7575,4.416389,23
"32","Montpellier",43.583333,3.961389,23
"33","Stockholm",58.788611,16.912222,23
"34","Dublin",53.421389,-6.27,23
"35","Venice",45.650833,12.197778,23
"36","Ancona",43.616667,13.360278,23
"37","Girona",41.900833,2.760556,23
"38","Milan",45.668889,9.700278,23
"39","Palma, Majorca",39.551667,2.738889,23
"40","Malta",35.8575,14.4775,23
"41","Málaga",36.675,-4.499167,23
"42","Berlin",52.559722,13.287778,26
"43","Las Palmas",27.931944,-15.386667,27
"44","Bari",41.138056,16.765,27
"45","Madrid",40.493611,-3.566667,27
"46","Barcelona",41.296944,2.078333,27
"47","Porto",41.235556,-8.678056,27
"48","Zaragoza",41.666111,-1.041667,27
"49","Warsaw",52.451111,20.651667,27
"50","Iași",47.178611,27.620556,29
"51","Katowice",50.474167,19.08,29
"52","Liverpool",53.333611,-2.849722,29
"53","Manchester",53.353611,-2.275,29
"54","Naples",40.884444,14.290833,29
"55","Athens",37.936389,23.944444,29
"56","Ljubljana",46.223611,14.4575,29
"57","Fes",33.927222,-4.978056,29
"58","Dortmund",51.518333,7.612222,29
"59","Birmingham",52.453611,-1.747778,29
"60","Nottingham",52.831111,-1.328056,29
"61","Seville",37.418056,-5.893056,29
"62","Frankfurt",50.033056,8.570556,29
"63","Cologne",50.865833,7.142778,29
"64","Kiev",50.345,30.894722,30
"65","Tours",47.431944,0.723056,30
"66","Ibiza",38.872778,1.373056,31
"67","Szymany, Szczytno County",53.480556,20.937222,32
"68","Derry",55.042778,-7.161111,32
"69","Comiso",36.994722,14.606944,33
"70","Aarhus",56.303889,10.619444,33
"71","Cork",51.841389,-8.491111,33
"72","Belfast",54.6575,-6.215833,33
"73","Bergerac",44.824444,0.520556,33
"74","Bremen",53.0475,8.786667,33
"75","Limoges",45.860833,1.180278,33
"76","Poitiers",46.5875,0.306667,33
"77","County Kerry",52.180833,-9.523889,33
"78","Nantes",47.156944,-1.607778,33
"79","Murcia",37.775,-0.8125,33
"80","Luxembourg City",49.623333,6.204444,33
"81","Poznań",52.421111,16.826389,33
"82","Gothenburg",57.662778,12.279722,33
"83","Shannon, County Clare",52.701944,-8.924722,33
"84","Billund",55.740278,9.151667,33
"85","Podgorica",42.359444,19.251944,33
"86","La Rochelle",46.179167,-1.195278,33
"87","Aalborg",57.092778,9.849167,33
"88","Pardubice",50.013333,15.738611,33
"89","Bydgoszcz",53.096667,17.977778,33
"90","Knock, County Mayo",53.910278,-8.818611,33
"91","Castellón de la Plana",40.214167,0.073333,33
"92","Jerez de la Frontera",36.744722,-6.06,33
"93","Nice",43.665278,7.215,33
"94","Memmingen",47.988056,10.2375,34
"95","Lviv",49.8125,23.956111,34
"96","Bratislava",48.170278,17.212778,35
"97","Tenerife",28.044444,-16.5725,35
"98","Vilnius",54.634167,25.285833,35
"99","Fuerteventura",28.452778,-13.863889,35
"100","Lanzarote",28.945556,-13.605278,35
"101","Lille",50.563333,3.086944,35
"102","Alghero",40.630278,8.289722,35
"103","Ostrava",49.696111,18.111111,35
"104","Gdańsk",54.3775,18.466111,35
"105","Glasgow",55.871944,-4.433333,35
"106","Pescara",42.431667,14.186667,35
"107","Leeds",53.865833,-1.660556,35
"108","Cagliari",39.251389,9.057778,35
"109","Bournemouth",50.78,-1.8425,35
"110","Hamburg",53.630278,9.988333,35
"111","Düsseldorf",51.289444,6.766667,35
"112","Bristol",51.3825,-2.718889,35
"113","Timișoara",45.81,21.337778,35
"114","Bucharest",44.572222,26.102222,35
"115","Kaunas",54.963889,24.084722,35
"116","Newcastle upon Tyne",55.0375,-1.691667,35
"117","Brest",48.447222,-4.421667,35
"118","Catania",37.466667,15.063889,35
"119","Trapani",37.9075,12.494167,36
"120","Perugia",43.097222,12.510278,36
"121","Santiago de Compostela",42.896389,-8.415278,36
"122","Dinard",48.587778,-2.08,37
"123","Leipzig",51.4325,12.241667,37
"124","Lourdes",43.185556,-0.002778,37
"125","Thessaloniki",40.519722,22.970833,37
"126","Craiova",44.318056,23.888611,38
"127","Ponta Delgada",37.741111,-25.697778,38
"128","Lublin",51.231389,22.690556,38
"129","Brindisi",40.660556,17.948056,38
"130","Alicante",38.282222,-0.558056,40
"131","Vigo",42.231667,-8.626667,40
"132","Crotone",38.9972,17.0802,40
"133","Valladolid",41.706111,-4.851944,40
"134","Szczecin",53.584722,14.902222,41
"135","Béziers",43.323333,3.353333,41
"136","Santorini",36.399167,25.479444,41
"137","Skopje",41.961667,21.621389,41
"138","Stuttgart",48.69,9.221944,41
"139","Amsterdam",52.308056,4.764167,42
"140","Basel",47.601111,7.521667,42
"141","Terceira Island",38.761944,-27.090833,42
"142","Saint Petersburg",59.800278,30.2625,43
"143","Bergen",60.293333,5.218056,43
"144","Rabat",34.051389,-6.751389,44
"145","Newquay",50.443333,-5.001667,44
"146","Växjö",56.929167,14.728056,44
"147","Ålesund",62.560278,6.110278,44
"148","Genoa",44.413333,8.8375,45
"149","Verona",45.396389,10.888056,45
"150","Karlsruhe",48.779444,8.080556,45
"151","Turku",60.514167,22.262778,45
"152","Kutaisi",42.176667,42.4825,46
"153","Łódź",51.721944,19.398056,46
"154","Belgrade",44.818333,20.309167,46
"155","Agadir",30.325,-9.413056,46
"156","Zürich",47.464722,8.549167,47
"157","Cardiff",51.396667,-3.343333,48
"158","Palermo",38.181944,13.099444,48
"159","Vienna",48.110278,16.578056,49
"160","Paphos",34.718056,32.485833,49
"161","Cluj-Napoca",46.785278,23.686111,49
"162","Tampere",61.414167,23.604444,50
"163","Toulon",43.097222,6.146111,51
"164","Lorient",47.760556,-3.44,51
"165","Debrecen",47.488889,21.615278,52
"166","Kharkiv",49.926111,36.283611,52
"167","Brno",49.151389,16.694444,52
"168","Suceava",47.6875,26.354167,52
"169","Oujda",34.787222,-1.923889,52
"170","Granada",37.188611,-3.777222,52
"171","Geneva",46.238056,6.108889,53
"172","Ovda",29.940278,34.935833,53
"173","Riga",56.923611,23.971111,53
"174","Bilbao",43.301111,-2.910556,53
"175","Reus",41.1475,1.167222,54
"176","Dole",47.042778,5.435,54
"177","Lyon",45.725556,5.081111,54
"178","Aberdeen",57.204167,-2.200278,54
"179","Hanover",52.460556,9.689444,55
"180","Casablanca",33.3675,-7.59,55
"181","Trieste",45.8275,13.472222,55
"182","Essaouira",31.3975,-9.681667,55
"183","Munich",48.353889,11.786111,56
"184","Innsbruck",47.260278,11.343889,56
"185","Menorca",39.8625,4.218611,56
"186","Kristiansand",58.204167,8.085278,56
"187","Asturias",43.563611,-6.034722,57
"188","Tallinn",59.413333,24.8325,58
"189","Sibiu",45.785556,24.091389,58
"190","Constanța",44.362222,28.488333,58
"191","Rijeka",45.216944,14.570278,58
"192","Vitoria-Gasteiz",42.882778,-2.724444,59
"193","Bastia",42.55,9.484722,59
"194","Caen",49.173333,-0.45,60
"195","Ouarzazate",30.939167,-6.909444,60
"196","Rotterdam",51.953056,4.430833,60
"197","Haugesund",59.345278,5.208333,60
"198","Helsinki",60.317222,24.963333,61
"199","Košice",48.663056,21.241111,61
"200","Reykjavik",63.985,-22.605556,61
"201","Trondheim",63.4575,10.924167,61
"202","Varna",43.231944,27.825,61
"203","Donostia / San Sebastián",43.356389,-1.790556,61
"204","Errachidia",31.946944,-4.398889,61
"205","Tuzla",44.458611,18.725556,62
"206","Târgu Mureș",46.467778,24.4125,63
"207","Chernivtsi",48.259444,25.980278,63
"208","Larnaca",34.875,33.624722,63
"209","Poprad",49.073611,20.241111,63
"210","Ajaccio",41.923889,8.8025,63
"211","Tel Aviv",32.007222,34.880556,63
"212","Friedrichshafen",47.671389,9.511389,63
"213","Douglas",54.083333,-4.624167,64
"214","Bacău",46.521944,26.910278,64
"215","Oradea",47.025278,21.9025,64
"216","Rzeszów",50.11,22.018889,64
"217","Valverde",27.814722,-17.886944,64
"218","A Coruña",43.302222,-8.377222,64
"219","Salzburg",47.793333,13.004444,65
"220","Donegal",55.044167,-8.341111,65
"221","Münster",52.134722,7.684722,65
"222","Strasbourg",48.541944,7.634444,65
"223","Moscow",55.591667,37.261389,66
"224","Tangier",35.726944,-5.916944,66
"225","Nizhnekamsk",55.566667,52.1,66
"226","Kaliningrad",54.89,20.5925,66
"227","Niš",43.337222,21.853611,66
"228","Volgograd",48.7825,44.345556,66
"229","Makhachkala",42.816944,47.652222,66
"230","Almería",36.843889,-2.37,67
"231","Sarajevo",43.824722,18.331389,68
"232","Pristina",42.572778,21.035833,68
"233","Tromsø",69.683333,18.918889,69
"234","Sofia",42.695278,23.406111,69
"235","Paderborn",51.614167,8.616389,69
"236","Satu Mare",47.703333,22.885833,70
"237","Heraklion",35.339722,25.180278,70
"238","Mytilene",39.053333,26.602222,70
"239","Parma",44.822222,10.295278,70
"240","Cuneo",44.5475,7.623056,70
"241","Algiers",36.694167,3.214722,71
"242","Southampton",50.950278,-1.356667,71
"243","Maastricht",50.915833,5.776944,71
"244","Inverness",57.54,-4.05,72
"245","Madeira",32.694167,-16.778056,72
"246","Vinnytsia",49.245,28.610278,72
"247","Dalaman",36.713056,28.7925,73
"248","Vladikavkaz",43.205,44.606667,73
"249","Antalya",36.898611,30.800556,73
"250","Rennes",48.071944,-1.732222,73
"251","Rostov-on-Don",47.493889,39.924722,73
"252","Osijek",45.462778,18.810278,74
"253","Pico Island",38.554444,-28.441389,74
"254","Flores Island",39.455278,-31.131389,74
"255","Corvo Island",39.671389,-31.113611,74
"256","Horta, Azores",38.52,-28.716389,74
"257","Clermont-Ferrand",45.785833,3.1625,74
"258","Santa Maria Island",36.973889,-25.171111,74
"259","Tunis",36.851111,10.227222,75
"260","Stord",59.791944,5.340833,75
"261","Florence",43.808611,11.202778,75
"262","Palanga",55.973333,21.093889,76
"263","Skyros",38.968333,24.488056,76
"264","Chania",35.531667,24.149722,76
"265","Olbia",40.898611,9.517778,76
"266","Kavala",40.913333,24.619167,76
"267","Alexandroupoli",40.855833,25.956389,76
"268","Saint Helier",49.207778,-2.195278,76
"269","Graz",46.993611,15.44,77
"270","Campbeltown",55.437222,-5.686389,78
"271","Chișinău",46.927778,28.930833,79
"272","Laayoune",27.151667,-13.219167,79
"273","Anglesey",53.248333,-4.535278,80
"274","Zagreb",45.743056,16.068889,81
"275","Dresden",51.134444,13.768056,81
"276","Split",43.538889,16.298056,81
"277","Rhodes",36.405556,28.086111,81
"278","Aqaba",29.611667,35.018056,81
"279","Liepāja",56.5175,21.096944,82
"280","Tirana",41.415,19.720833,83
"281","Odessa",46.426667,30.676389,83
"282","Al Hoceima",35.177222,-3.839444,83
"283","Ioannina",39.696389,20.8225,83
"284","Nazran",43.324167,45.003056,84
"285","Kherson",46.677222,32.507222,84
"286","Exeter",50.734444,-3.413889,84
"287","San Sebastián de La Gomera",28.029722,-17.214722,84
"288","Tiree",56.499167,-6.869167,84
"289","Samos",37.69,26.911667,84
"290","Mykonos",37.435,25.348056,84
"291","Molde",62.744722,7.2625,85
"292","Kythira",36.274167,23.016944,85
"293","Istanbul",40.898611,29.309167,85
"294","Chios",38.343056,26.140556,85
"295","Kos",36.793333,27.091667,85
"296","Corfu",39.601944,19.911667,85
"297","Naxos",37.082222,25.368611,85
"298","Plaka, Milos",36.696667,24.472778,85
"299","Parikia",37.010278,25.128611,85
"300","Groningen",53.125,6.583333,86
"301","Ostend",51.199722,2.875278,86
"302","Hurghada",27.178611,33.801389,86
"303","Ivano-Frankivsk",48.884167,24.686111,86
"304","São Jorge Island",38.665556,-28.175833,86
"305","Graciosa",39.092222,-28.029722,86
"306","Dakhla",23.718333,-15.931944,87
"307","Grenoble",45.363056,5.332778,87
"308","Umeå",63.791944,20.282778,88
"309","Luleå",65.543889,22.121944,88
"310","Sochi",43.45,39.956667,88
"311","Norwich",52.675833,1.282778,88
"312","Yekaterinburg",56.743056,60.802778,89
"313","Perm",57.914444,56.021111,89
"314","Astrakhan",46.283333,48.006389,89
"315","Kazan",55.606111,49.278611,89
"316","Krasnodar",45.0325,39.166389,89
"317","Astana",51.023056,71.466944,89
"318","Kirov",58.500833,49.342222,89
"319","Mineralnye Vody",44.225,43.081944,89
"320","Saint Peter Port",49.434722,-2.601944,89
"321","Gibraltar",36.151111,-5.349722,89
"322","Icaria",37.682778,26.346944,90
"323","Plovdiv",42.067778,24.850833,90
"324","Dubai",24.896111,55.16,91
"325","Zakynthos Island",37.750833,20.884167,91
"326","Lemnos",39.916944,25.236389,92
"327","Barra",57.025556,-7.449722,92
"328","Bodrum",37.250556,27.664444,94
"329","Burgas",42.569722,27.515278,94
"330","Enfidha",36.075556,10.438333,94
"331","Karpathos",35.421389,27.146111,94
"332","Oran",35.623889,-0.621111,95
"333","Tlemcen",35.013333,-1.457778,95
"334","Zaporizhia",47.866944,35.315556,95
"335","Béjaïa",36.711944,5.07,95
"336","Östersund",63.194444,14.500278,95
"337","Oulu",64.93,25.354444,96
"338","Samara",53.503889,50.151667,96
"339","Sétif",36.178056,5.324444,96
"340","İzmir",38.2925,27.156944,96
"341","Narvik",68.491389,16.678056,97
"342","Bodø",67.269167,14.365278,97
"343","Kirkenes",69.725833,29.891389,97
"344","Alta",69.976111,23.371667,97
"345","Jijel",36.795,5.873611,97
"346","Konya",37.978889,32.561944,97
"347","Tétouan",35.59,-5.328056,97
"348","Eilat",29.558333,34.958889,97
"349","Sharm El Sheikh",27.977222,34.395,98
"350","Cheboksary",56.090278,47.347222,98
"351","Ankara",40.128056,32.995,98
"352","Melilla",35.279722,-2.956389,99
"353","Ivanovo",56.941178,40.933176,99
"354","Tomsk",56.385833,85.213333,99
"355","Malmö",55.5425,13.375,99
"356","Arkhangelsk",64.600278,40.716667,100
"357","Syktyvkar",61.646944,50.845,100
"358","Minsk",53.8825,28.030833,100
"359","Batna",35.752222,6.308611,100
"360","Liège",50.6375,5.443333,100
"361","Baia Mare",47.658333,23.466389,100
"362","Nizhny Novgorod",56.23,43.784167,101
"363","Tbilisi",41.669167,44.954722,101
"364","Figari",41.502222,9.096667,101
"365","Biskra",34.793333,5.738333,101
"366","Pskov",57.783889,28.395556,102
"367","Klagenfurt",46.642778,14.337778,102
"368","Denizli",37.785556,29.701389,102
"369","Skellefteå",64.624722,21.076944,103
"370","Cephalonia",38.12,20.500556,103
"371","Dundee",56.452222,-3.025556,104
"372","Kayseri",38.770278,35.495556,104
"373","Edremit",39.554722,27.013889,104
"374","Sitia",35.216111,26.101389,104
"375","Djerba",33.875,10.775556,104
"376","Constantine",36.276111,6.620278,104
"377","Gazipaşa",36.298056,32.290278,104
"378","Sivas",39.813889,36.903611,104
"379","Amasya",40.828611,35.520278,104
"380","Stavanger",58.876667,5.637778,104
"381","Sogndal",61.156667,7.139444,105
"382","Tivat",42.404722,18.723333,105
"383","Samsun",41.254444,36.567222,105
"384","Giresun",40.966944,38.085833,105
"385","Murmansk",68.781667,32.750833,106
"386","Visby",57.662778,18.346111,106
"387","Nevşehir",38.771944,34.534444,106
"388","Laghouat",33.764722,2.9275,106
"389","Røros",62.578889,11.344722,107
"390","Kahramanmaraş",37.538889,36.953333,107
"391","Ufa",54.5575,55.883889,107
"392","Stavropol",45.109167,42.112778,107
"393","Gyumri",40.750278,43.859444,107
"394","Erzincan",39.710278,39.526944,107
"395","Doncaster",53.475278,-1.003889,107
"396","Van",38.468333,43.332222,107
"397","Sundsvall",62.528056,17.443889,108
"398","Ronneby",56.266667,15.265,108
"399","Kalmar",56.685556,16.2875,108
"400","Ängelholm",56.296111,12.847222,108
"401","Beirut",33.820833,35.488333,108
"402","Hatay Province",36.359722,36.284722,108
"403","Diyarbakır",37.893889,40.201111,108
"404","Trabzon",40.995,39.789722,108
"405","Reggio Calabria",38.071944,15.653611,109
"406","Badajoz",38.891389,-6.821389,109
"407","Monastir",35.758056,10.754722,109
"408","Baku",40.4675,50.046667,110
"409","Tekirdağ",41.138889,27.919444,110
"410","Calvi, Haute-Corse",42.520278,8.793056,110
"411","Skiathos",39.177222,23.503611,110
"412","Tyumen",57.189444,65.324167,110
"413","Cherepovets",59.278056,38.0225,111
"414","Malatya",38.435278,38.091111,111
"415","Ulan-Ude",51.807778,107.437778,111
"416","Gaziantep",36.947222,37.478611,111
"417","Voronezh",51.814167,39.229722,112
"418","Santa Cruz de La Palma",28.626389,-17.755556,112
"419","Northern Cyprus",35.159722,33.488333,112
"420","Ivalo",68.607222,27.405278,113
"421","Elazığ",38.606944,39.291389,113
"422","Erzurum",39.956389,41.170278,113
"423","Ulyanovsk",54.268333,48.226667,113
"424","Annaba",36.822222,7.809167,113
"425","El Oued",33.512778,6.782778,113
"426","Muş",38.747778,41.661111,113
"427","Rodez",44.4075,2.483333,114
"428","Kars",40.562222,43.115,114
"429","Şanlıurfa",37.447658,38.898752,114
"430","Örnsköldsvik",63.408333,18.99,114
"431","Mardin",37.223333,40.631667,114
"432","Tambov",52.806099,41.482799,114
"433","Dnipro",48.357222,35.100556,114
"434","Kursk",51.750556,36.295556,114
"435","Kalamata",37.068333,22.025556,114
"436","Islay",55.681944,-6.256667,114
"437","Tébessa",35.431667,8.120833,114
"438","Adıyaman",37.731389,38.468889,115
"439","Touggourt",33.067778,6.088611,115
"440","Westerland",54.913333,8.340556,116
"441","Bingöl",38.861389,40.5925,116
"442","Bornholm",55.063333,14.760278,116
"443","Saratov",51.565,46.046667,116
"444","Ohrid",41.18,20.742222,117
"445","Bursa",40.255278,29.5625,117
"446","Bryansk",53.214176,34.178872,117
"447","Guelmim",29.026667,-10.050278,117
"448","Isparta",37.855556,30.368333,117
"449","Batman",37.928889,41.116667,118
"450","Leros",37.185,26.800278,118
"451","Grozny",43.388333,45.7,118
"452","Kastoria",40.446389,21.282222,119
"453","Logroño",42.460556,-2.320556,119
"454","Kozani",40.286111,21.840833,119
"455","Burgos",42.357601,-3.62076,119
"456","Ghardaïa",32.384167,3.794167,119
"457","Kütahya",39.108436,30.136226,121
"458","Petrozavodsk",61.885278,34.154722,121
"459","Belgorod",50.643889,36.59,122
"460","Kemerovo",55.27,86.107222,122
"461","Sønderborg",54.964444,9.791667,122
"462","Ouargla",31.923889,5.410556,122
"463","Ağrı",39.653889,43.026389,123
"464","Şırnak",37.363611,42.061944,123
"465","Rovaniemi",66.564722,25.830278,124
"466","Stornoway",58.215556,-6.331111,124
"467","Pavlodar",52.195,77.073889,124
"468","Zielona Góra",52.138611,15.798611,125
"469","Saransk",54.125833,45.213333,125
"470","Çanakkale",40.137778,26.426667,126
"471","Hassi Messaoud",31.673056,6.140556,126
"472","Marsa Alam",25.557222,34.583611,127
"473","Novy Urengoy",66.070278,76.520556,127
"474","Florø",61.583611,5.024722,127
"475","Iğdır",39.972778,43.884444,128
"476","Pau, Pyrénées-Atlantiques",43.38,-0.418611,128
"477","Kastamonu",41.315,33.796111,128
"478","Rostock",53.918056,12.278333,129
"479","Lipetsk",52.703853,39.531695,129
"480","Alexandria",30.917778,29.696389,129
"481","Surgut",61.343611,73.401944,130
"482","Sørvágur",62.066389,-7.293056,131
"483","Dubrovnik",42.561389,18.268333,132
"484","Zadar",44.108333,15.346667,132
"485","Vila Baleira",33.070833,-16.349722,132
"486","Arvidsjaur",65.590278,19.281944,133
"487","Novosibirsk",55.0125,82.650556,133
"488","Penza",53.110556,45.021389,133
"489","Almaty",43.353333,77.042222,134
"490","Hakkâri",37.549444,44.238333,135
"491","Volda",62.179167,6.071111,135
"492","Anapa",45.002222,37.347222,135
"493","Kristiansund",63.111667,7.824444,135
"494","Khanty-Mansiysk",61.028611,69.086111,137
"495","Yerevan",40.147222,44.395833,137
"496","Benbecula",57.4775,-7.366389,137
"497","Béchar",31.646111,-2.278889,137
"498","Aktobe",50.245833,57.206667,138
"499","Kuwait City",29.226667,47.968889,139
"500","Kostanay",53.206944,63.550278,139
"501","Kurgan, Kurgan Oblast",55.470833,65.410556,140
"502","Chelyabinsk",55.305833,61.503333,140
"503","Irkutsk",52.268056,104.388889,140
"504","Oskemen",50.036667,82.493611,140
"505","Taraz",42.853611,71.303611,140
"506","Kassel",51.408333,9.3775,141
"507","Simferopol",45.052222,33.973889,141
"508","Syros",37.422778,24.95,141
"509","Vadsø",70.064444,29.8375,141
"510","Salekhard",66.590833,66.611111,143
"511","Shymkent",42.364167,69.478889,143
"512","Pamplona",42.77,-1.646389,143
"513","Magnitogorsk",53.393056,58.755556,144
"514","Uray",60.116111,64.83,144
"515","Cairo",30.121944,31.405556,145
"516","Lleida",41.728056,0.535278,146
"517","Timimoun",29.236944,0.276944,146
"518","Svolvær",68.243889,14.669444,147
"519","Leknes",68.154444,13.611944,147
"520","Erfurt",50.979722,10.958056,148
"521","León",42.588889,-5.655556,148
"522","Izhevsk",56.829167,53.457778,148
"523","Astypalaia",36.58,26.375556,149
"524","Boa Vista",16.136667,-22.888889,149
"525","Andselv",69.055833,18.540278,149
"526","Rørvik",64.834167,11.135556,150
"527","Elista",46.373889,44.330833,151
"528","Kalymnos",36.963333,26.941111,151
"529","Krasnoyarsk",56.173056,92.493333,152
"530","Karlovy Vary",50.203056,12.915,152
"531","Providence",41.725,-71.425833,152
"532","Nizhnevartovsk",60.949167,76.483611,153
"533","Førde",61.391944,5.760556,153
"534","Quimper",47.975,-4.167778,153
"535","Sørkjosen",69.786944,20.959444,153
"536","Gelendzhik",44.579167,38.011944,155
"537","Aktau",43.86,51.091944,155
"538","Castres",43.555,2.290556,156
"539","Agen",44.174722,0.590556,156
"540","Oral",51.151111,51.541667,156
"541","Usinsk",66.004444,57.367222,157
"542","Sal",16.741389,-22.949444,157
"543","Montreal",45.470556,-73.740833,158
"544","Kittilä",67.701111,24.846944,159
"545","Mo i Rana",66.366667,14.3,159
"546","Adrar",27.8375,-0.186389,159
"547","Kirovsk",67.576389,33.580278,159
"548","Ukhta",63.566667,53.804444,160
"549","Luxor",25.671111,32.706667,160
"550","Jeddah",21.679444,39.156667,162
"551","Jyväskylä",62.399444,25.678333,162
"552","Brønnøysund",65.461111,12.2175,162
"553","Mosjøen",65.783889,13.215,162
"554","Tehran",35.416111,51.152222,162
"555","Nadym",65.481389,72.699722,163
"556","Taldykorgan",45.122778,78.442778,163
"557","Kyzylorda",44.7075,65.592222,164
"558","New York",41.504167,-74.104722,164
"559","Hasvik",70.486667,22.139722,165
"560","Vaasa",63.050556,21.762222,165
"561","Kastellorizo",36.141944,29.576389,165
"562","Nalchik",43.512778,43.636667,166
"563","El Goléa",30.581667,2.861667,166
"564","Kasos",35.421389,26.91,166
"565","In Salah",27.251111,2.511944,166
"566","Nouadhibou",20.933056,-17.03,166
"567","Detroit",42.2125,-83.353333,167
"568","Boston",42.364444,-71.005278,167
"569","Washington, D.C.",39.175278,-76.668333,167
"570","Orsk",51.0725,58.595556,167
"571","St. Louis",38.748611,-90.37,167
"572","Joensuu",62.662778,29.6075,169
"573","Kokkola",63.721111,23.143056,169
"574","Jönköping",57.7575,14.068611,169
"575","Preveza",38.925556,20.765278,169
"576","Pittsburgh",40.491389,-80.232778,170
"577","Kogalym",62.190556,74.533889,170
"578","Chicago",41.978611,-87.904722,170
"579","Sandnessjøen",65.956944,12.468889,171
"580","Lakselv",70.068889,24.973611,171
"581","Sandane",61.83,6.1075,172
"582","Kuopio",63.007222,27.797778,172
"583","Gällivare",67.1325,20.814722,173
"584","Muscat",23.592778,58.281667,173
"585","Namsos",64.471667,11.570556,174
"586","Kirmington",53.574444,-0.350833,175
"587","Nancy",48.978333,6.246667,175
"588","Wick",58.458889,-3.093056,175
"589","Linköping",58.406279,15.679311,176
"590","Toronto",43.677222,-79.630556,176
"591","Veliky Ustyug",60.784722,46.256389,176
"592","Kemi",65.778611,24.580833,176
"593","Karlstad",59.444722,13.3375,176
"594","Shetland Islands",59.878889,-1.295556,176
"595","Chita",52.026389,113.305556,178
"596","Riyadh",24.957778,46.698889,180
"597","Rouen",49.390833,1.183889,180
"598","Kajaani",64.285556,27.6925,180
"599","Mariehamn",60.121667,19.8975,180
"600","Omsk",54.966944,73.310556,181
"601","Dammam",26.471111,49.797778,181
"602","Orenburg",51.795833,55.456667,181
"603","El Bayadh",33.720833,1.091389,181
"604","Vardø",70.355278,31.045,182
"605","Mostar",43.282778,17.845833,183
"606","Ganja",40.735,46.3175,184
"607","Novokuznetsk",53.806389,86.871111,184
"608","Kirkwall",58.957778,-2.905278,184
"609","Halmstad",56.691111,12.820278,185
"610","Lugano",46.004167,8.910556,185
"611","Batumi",41.610278,41.599722,185
"612","Longyearbyen",78.246111,15.465556,186
"613","Naryan-Mar",67.640278,53.1225,186
"614","In Amenas",28.051667,9.642778,186
"615","Karup",56.2975,9.124722,187
"616","Banjul",13.338056,-16.652222,187
"617","São Vicente",16.833611,-25.054722,187
"618","Praia",14.941389,-23.484722,187
"619","Asyut",27.046389,31.011944,188
"620","Noyabrsk",63.183611,75.268889,188
"621","Barnaul",53.363056,83.547222,188
"622","Shiraz",29.540278,52.588611,188
"623","Beni Mellal",32.4,-6.317222,188
"624","Røst",67.5275,12.103056,189
"625","Rimini",44.019444,12.609444,189
"626","Abu Dhabi",24.433056,54.651111,189
"627","Andenes",69.2925,16.144167,189
"628","Bratsk",56.370556,101.698333,190
"629","Bishkek",43.061389,74.4775,190
"630","Nyagan",62.101667,65.6025,191
"631","Tozeur",33.939722,8.110556,192
"632","Kathmandu",27.696667,85.359167,192
"633","Fort-de-France",14.591111,-61.003056,193
"634","Kozhikode",11.136944,75.955278,193
"635","Pula",44.893611,13.922222,193
"636","Illizi",26.723611,8.622778,194
"637","Tabuk",28.365556,36.618889,194
"638","New Delhi",28.566389,77.103056,195
"639","Orlando",28.429444,-81.308889,195
"640","Fort Lauderdale",26.0725,-80.152778,196
"641","Thiruvananthapuram",8.482222,76.92,198
"642","Bahrain Island",26.270833,50.633611,198
"643","Kuusamo",65.9875,29.239444,198
"644","Doha",25.274444,51.608333,199
"645","Tindouf",27.700278,-8.167222,199
"646","Beloyarsky",63.690556,66.699722,199
"647","Medina",24.553333,39.705,199
"648","Chlef",36.212778,1.331667,200
"649","Karaganda",49.670833,73.334444,200
"650","Karachi",24.906667,67.160833,201
"651","Tamanrasset",22.811389,5.451111,201
"652","Lankaran",38.758889,48.806389,201
"653","Miami",25.793333,-80.290556,202
"654","Djanet",24.292778,9.4525,202
"655","Amritsar",31.709722,74.797222,203
"656","Kokshetau",53.329167,69.594722,203
"657","Kyzyl",51.673333,94.408056,204
"658","Atyrau",47.121944,51.821389,204
"659","Jizan",16.901111,42.585833,205
"660","Sfax",34.718056,10.691111,206
"661","Mangalore",12.961389,74.89,206
"662","Abidjan",5.261389,-3.926389,207
"663","Osh",40.608889,72.793333,207
"664","Abha",18.240278,42.656667,207
"665","Las Vegas",36.08,-115.15222,208
"666","Tashkent",41.257778,69.281111,209
"667","Baghdad",33.2625,44.234444,210
"668","Erbil",36.237778,43.963056,210
"669","Punta Gorda",26.917778,-81.995278,210
"670","Tampa",27.975556,-82.533333,211
"671","Khartoum",15.589444,32.553056,211
"672","Pointe-à-Pitre",16.265278,-61.531944,211
"673","Johnstown",40.316111,-78.833889,211
"674","Sovetsky",61.325278,63.603611,211
"675","Al-Qassim Region",26.302778,43.773889,211
"676","Denver",39.861667,-104.67306,212
"677","Fergana",40.361389,71.744722,213
"678","Lafayette",30.205278,-91.9875,216
"679","Leh",34.135833,77.546389,216
"680","Petropavl",54.774444,69.183889,216
"681","Kochi",10.151944,76.401944,217
"682","Durham, England",54.509167,-1.429444,217
"683","Atlanta",33.636667,-84.428056,217
"684","Little Rock",34.729444,-92.224444,220
"685","Yanbu",24.144167,38.063333,220
"686","Nakhchivan",39.188889,45.458333,221
"687","Montego Bay",18.503611,-77.913333,221
"688","Ashgabat",37.986944,58.360833,221
"689","Zanzibar",-6.221944,39.225,221
"690","Mombasa",-4.028056,39.599722,221
"691","Al Bahah",20.296111,41.634167,221
"692","Los Angeles",33.9425,-118.40806,221
"693","Bordj Badji Mokhtar",21.3775,0.923611,222
"694","Nagpur",21.092222,79.047222,222
"695","Chandigarh",30.673333,76.788611,223
"696","Stokmarknes",68.581111,15.021111,223
"697","Sharurah",17.466944,47.121389,223
"698","Ust-Tsilma",65.433333,52.201667,223
"699","Udachny",66.400556,112.030278,223
"700","Asheville",35.436111,-82.541944,224
"701","Ludhiana",30.854167,75.953611,224
"702","Linz",48.233333,14.1875,224
"703","Kristianstad",55.921667,14.085556,225
"704","Lar",27.673056,54.387222,225
"705","Raleigh",35.877778,-78.7875,225
"706","San Antonio",29.533611,-98.469722,225
"707","Harlingen",26.228611,-97.654444,225
"708","Salalah",17.038611,54.091389,226
"709","Islamabad",33.55126,72.826754,226
"710","Navoiy",40.116389,65.165833,226
"711","Nouakchott",18.097778,-15.948056,226
"712","Owensboro",37.74,-87.166944,226
"713","Urgench",41.584167,60.641667,227
"714","Fort Myers",26.536111,-81.755278,227
"715","Dallas",32.896944,-97.038056,227
"716","Hyderabad",17.231111,78.431389,228
"717","Bugulma",54.635278,52.799167,228
"718","Allahabad",25.44,81.733889,228
"719","West Palm Beach",26.683056,-80.095556,228
"720","Kiruna",67.821944,20.336667,229
"721","Hammerfest",70.679167,23.666111,229
"722","Greensboro",36.097778,-79.937222,229
"723","Abakan",53.74,91.385,229
"724","Jacksonville",30.494167,-81.687778,229
"725","Albany",42.748333,-73.801667,230
"726","Houston",29.984444,-95.341389,230
"727","Alderney",49.706944,-2.215556,231
"728","Sohag",26.342778,31.742778,231
"729","Ha il",27.438056,41.686389,232
"730","Pathankot",32.2237,75.6364,232
"731","Buffalo",42.940556,-78.732222,232
"732","Minneapolis",44.881944,-93.221667,232
"733","Syracuse",43.111111,-76.106389,232
"734","Norrköping",58.586111,16.248611,233
"735","Papa Westray",59.351389,-2.9,233
"736","Massena",44.935833,-74.845556,233
"737","North Ronaldsay",59.3675,-2.434444,233
"738","Sarasota",27.395556,-82.554444,233
"739","Richmond",37.505278,-77.319722,233
"740","Vorkuta",67.489167,63.995556,233
"741","Destin",30.486667,-86.52,233
"742","Isfahan",32.751667,51.869722,234
"743","Ranchi",23.314167,85.321667,234
"744","Varadero",23.034444,-81.435278,235
"745","New Orleans",29.993333,-90.258056,235
"746","Trenton",40.276944,-74.811944,235
"747","Milwaukee",42.947222,-87.896667,235
"748","Kotlas",61.236111,46.698889,235
"749","Knoxville",35.811111,-83.994167,235
"750","Lahore",31.521667,74.403611,235
"751","Jammu",32.689167,74.8375,235
"752","Decatur",39.834444,-88.865556,235
"753","Pensacola",30.473333,-87.186667,235
"754","Quincy",39.940833,-91.194444,235
"755","Lucknow",26.760556,80.889444,236
"756","Esbjerg",55.525833,8.553333,236
"757","Coimbatore",11.03,77.043333,236
"758","Bengaluru",13.198889,77.705556,236
"759","Myrtle Beach",33.679722,-78.928333,236
"760","Srinagar",33.987222,74.774167,236
"761","Burlington",40.779444,-91.1225,236
"762","Krabi",8.095833,98.988889,237
"763","Varanasi",25.452222,82.859444,237
"764","Cincinnati",39.048889,-84.667778,237
"765","Kirksville",40.093611,-92.544444,237
"766","Mehamn",71.028611,27.826944,238
"767","Vadodara",22.336111,73.226389,239
"768","Peshawar",33.993889,71.514444,239
"769","San Francisco",37.618889,-122.39167,239
"770","Raipur",21.180278,81.738889,239
"771","Lebanon",43.627778,-72.307222,239
"772","Birmingham",33.563056,-86.753611,239
"773","Bisha",19.984444,42.620833,240
"774","Indianapolis",39.717222,-86.294444,240
"775","Kolkata",22.654722,88.446667,240
"776","Ta if",21.483333,40.544444,240
"777","Cape Girardeau",37.225278,-89.570833,240
"778","Madurai",9.834444,78.093333,241
"779","Nashville",36.124444,-86.678333,241
"780","Nukus",42.486667,59.622778,241
"781","Mirny",62.534722,114.038889,241
"782","Marion",37.751389,-89.016667,241
"783","Multan",30.203333,71.419167,242
"784","Wadi ad-Dawasir",20.504167,45.199444,242
"785","Bandar Abbas",27.218611,56.377778,242
"786","Aswan",23.964444,32.82,243
"787","Dehradun",30.189722,78.180278,243
"788","Guwahati",26.106111,91.585833,243
"789","Jodhpur",26.251111,73.048889,244
"790","Rutland City",43.529444,-72.949722,244
"791","Brive-la-Gaillarde",45.04002,1.484675,244
"792","Saranac Lake",44.385278,-74.206111,244
"793","Jackson",32.311111,-90.075833,244
"794","Charlotte",35.213889,-80.943056,244
"795","Kansas City",39.2975,-94.713889,244
"796","Omaha",41.303056,-95.894167,244
"797","Grand Rapids",42.880833,-85.522778,244
"798","Agra",27.155833,77.960833,245
"799","Bukhara",39.766389,64.48,245
"800","Punta Cana",18.5675,-68.363333,245
"801","Norfolk",36.894722,-76.201111,245
"802","Columbus",39.998056,-82.891944,245
"803","Portland",43.646111,-70.309167,245
"804","Quebec City",46.791111,-71.393333,245
"805","Samarkand",39.700556,66.984722,245
"806","Phoenix",33.434167,-112.01167,245
"807","São Filipe",14.886667,-24.481944,246
"808","Singapore",1.359167,103.989444,246
"809","Jezkazgan",47.71,67.740278,247
"810","Cancún",21.036667,-86.877222,247
"811","Patna",25.591389,85.088056,247
"812","Cleveland",41.411667,-81.849722,247
"813","Blagoveshchensk",50.425278,127.4125,247
"814","Chittagong",22.249722,91.813333,248
"815","Burlington",44.471944,-73.153333,248
"816","Visakhapatnam",17.721111,83.224444,248
"817","Jonesboro",35.833056,-90.649444,248
"818","Hubli",15.361667,75.086944,248
"819","Bhopal",23.2875,77.3375,249
"820","Abadan",30.371111,48.228333,249
"821","Bandar Lengeh",26.531389,54.8275,249
"822","Huntsville",34.637222,-86.775,249
"823","Muskegon",43.169444,-86.238333,249
"824","Ahvaz",31.3375,48.760278,249
"825","Greenville",34.895556,-82.218889,250
"826","Austin",30.194444,-97.67,250
"827","Jaipur",26.824167,75.812222,251
"828","Atlantic City",39.4575,-74.577222,251
"829","Khasab",26.171111,56.240556,251
"830","Vijayawada",16.530556,80.796944,252
"831","Savannah",32.1275,-81.202222,252
"832","São Nicolau",16.588611,-24.284167,252
"833","Mumbai",19.088611,72.868056,253
"834","Jackson",35.6025,-88.913889,253
"835","Gwalior",26.293333,78.227778,254
"836","Rochester",43.118889,-77.6725,254
"837","Augusta",44.318056,-69.796944,254
"838","Bloomington",40.477222,-88.915833,254
"839","Oklahoma City",35.393056,-97.600833,254
"840","Yakutsk",62.093333,129.770556,254
"841","Båtsfjord",70.600278,29.6925,254
"842","Honningsvåg",71.009722,25.980278,255
"843","Bhubaneswar",20.244444,85.817778,255
"844","Neryungri",56.911389,124.903056,255
"845","Islip",40.795278,-73.100278,255
"846","Tiruchirappalli",10.765278,78.709722,255
"847","Kish Island",26.5275,53.979167,255
"848","Ontario",34.056111,-117.60111,255
"849","Memphis",35.0425,-89.976667,255
"850","Aurillac",44.8975,2.416667,256
"851","Louisville",38.174444,-85.736111,256
"852","Mason City",43.155833,-93.335833,256
"853","Ironwood",46.527778,-90.132778,256
"854","Durgapur",23.624167,87.242222,257
"855","Vladivostok",43.398889,132.148056,257
"856","Colombo",7.180278,79.885278,258
"857","Qaisumah",28.335278,46.125,258
"858","Jaisalmer",26.888611,70.865,258
"859","Stronsay",59.155278,-2.641944,258
"860","Westray",59.350278,-2.95,258
"861","Udaipur",24.617778,73.896111,259
"862","Rajahmundry",17.11,81.819444,259
"863","Bangkok",13.9125,100.606667,259
"864","Dushanbe",38.543333,68.825,259
"865","Harrisburg",40.193611,-76.763333,259
"866","Allentown",40.652222,-75.440833,259
"867","Hamilton",43.161944,-79.928056,260
"868","Beijing",40.08,116.584444,260
"869","Dhaka",23.843333,90.397778,261
"870","Sylhet",24.963333,91.866667,261
"871","Al Jawf Region",29.785,40.1,261
"872","Philadelphia",39.871944,-75.241111,261
"873","Pune",18.582222,73.919722,261
"874","Eday",59.190556,-2.772222,261
"875","Zouérat",22.757778,-12.476111,261
"876","Termez",37.286667,67.31,262
"877","Lexington",38.036389,-84.605833,262
"878","Tupelo",34.268056,-88.77,262
"879","Fayetteville",34.99,-78.883056,263
"880","Wilmington",34.270556,-77.9025,263
"881","Dharamshala",32.165278,76.260556,264
"882","Provincetown",42.072778,-70.220278,264
"883","Madison",43.139722,-89.3375,264
"884","Rockland",44.059444,-69.099722,264
"885","Seattle",47.448889,-122.30944,264
"886","Salt Lake City",40.788333,-111.97778,265
"887","Al Wajh",26.198611,36.476389,265
"888","Tirupati",13.6325,79.543333,266
"889","Long Beach",33.817778,-118.15167,266
"890","Fresno",36.776111,-119.71806,267
"891","Ürümqi",43.907222,87.474167,267
"892","Fort Dodge",42.551111,-94.191944,268
"893","Yerbogachen",61.275,108.03,268
"894","Gorno-Altaysk",51.969167,85.836389,268
"895","Iron Mountain",45.816667,-88.116667,268
"896","Dawadmi",24.45,44.121111,268
"897","Ulaanbaatar",47.843056,106.766667,268
"898","Trollhättan",58.318056,12.345,269
"899","Stockton",37.894167,-121.23833,269
"900","Rahim Yar Khan",28.383889,70.279444,269
"901","Sukkur",27.721389,68.793056,269
"902","Worcester",42.266667,-71.874167,270
"903","Eskişehir",39.81,30.516944,271
"904","Monterrey",25.778611,-100.10694,271
"905","Panjgur",26.9545,64.1325,272
"906","San Jose",37.3625,-121.92889,272
"907","Qarshi",38.801944,65.774722,272
"908","South Bend",41.704722,-86.313056,272
"909","Bar Harbor",44.446667,-68.361389,274
"910","Colorado Springs",38.805833,-104.70083,274
"911","Belgaum",15.859167,74.618333,274
"912","Portsmouth",43.078056,-70.823333,274
"913","Dar es Salaam",-6.878056,39.2025,274
"914","Tucson",32.116111,-110.94111,274
"915","Turbat",25.986389,63.030278,275
"916","Halifax",44.886944,-63.512778,275
"917","Toluca",19.336944,-99.566111,275
"918","Arar",30.906667,41.138333,275
"919","San Diego",32.733611,-117.18972,275
"920","Ciudad Juárez",31.636111,-106.42861,275
"921","Portland",45.588611,-122.5975,275
"922","Clarksburg",39.296667,-80.228056,275
"923","Lewisburg",37.856111,-80.401944,275
"924","Silchar",24.913056,92.978611,276
"925","Mexico City",19.436389,-99.072222,276
"926","Norilsk",69.311111,87.332222,276
"927","Aruba",12.501389,-70.015278,276
"928","Petropavlovsk-Kamchatsky",53.169444,158.450833,276
"929","Springfield",39.844167,-89.677778,276
"930","Ahmedabad",23.077222,72.634722,277
"931","Niagara Falls",43.107222,-78.946111,277
"932","Kabul",34.565833,69.2125,278
"933","Hartford",41.938889,-72.683333,278
"934","León",20.993333,-101.48083,278
"935","Latrobe",40.275833,-79.404722,278
"936","San Salvador",13.440833,-89.055833,278
"937","Des Moines",41.534167,-93.657778,278
"938","Kirensk",57.772778,108.058611,279
"939","Bahawalpur",29.348056,71.718056,279
"940","Surat",21.114167,72.741667,280
"941","Concord",35.387778,-80.709167,280
"942","Ust-Kut",56.857222,105.731667,280
"943","Guadalajara",20.521667,-103.31111,280
"944","Kanpur",26.409102,80.409174,280
"945","Luanda",-8.858333,13.231111,280
"946","Akron",40.916111,-81.442222,280
"947","Jacksonville",34.827345,-77.612621,281
"948","San Pedro Sula",15.452778,-87.923611,281
"949","New Bern",35.073056,-77.043056,281
"950","Panama City",9.071389,-79.383333,281
"951","Cap-Haïtien",19.733056,-72.194722,281
"952","Saint Thomas",18.337222,-64.973333,281
"953","Sanday, Orkney",59.250278,-2.575,281
"954","Sialkot",32.535278,74.363889,282
"955","Chiang Mai",18.771389,98.962778,282
"956","Namangan",40.985,71.556944,282
"957","Augusta",33.37,-81.964444,282
"958","Kuala Lumpur",2.745556,101.714722,282
"959","Faisalabad District",31.365,72.994722,282
"960","Goa",15.380833,73.831389,283
"961","Nassau",25.038889,-77.466111,283
"962","Bellingham",48.792778,-122.5375,283
"963","Burbank",34.200556,-118.35861,283
"964","Windsor",42.270556,-82.961944,283
"965","Indore",22.721667,75.801111,284
"966","Chattanooga",35.035278,-85.203889,284
"967","Palm Springs",33.829722,-116.50667,284
"968","Magadan",59.911111,150.720556,284
"969","Flint",42.965556,-83.743611,284
"970","Hyannis",41.665556,-70.281389,284
"971","Fort Wayne",40.983056,-85.189722,284
"972","Merced",37.283333,-120.51667,284
"973","Tuxtla Gutiérrez",16.561944,-93.026111,285
"974","Qingdao",36.266111,120.374444,285
"975","Calgary",51.113889,-114.02028,285
"976","Manchester",42.9325,-71.435556,286
"977","Tripoli",32.663611,13.158889,286
"978","Yuzhno-Sakhalinsk",46.888611,142.7175,286
"979","Khabarovsk",48.528056,135.188333,286
"980","Fort Leonard Wood",37.741667,-92.140833,287
"981","Bermuda",32.364167,-64.678611,288
"982","Maio",15.155833,-23.213611,289
"983","Gorakhpur",26.741111,83.45,289
"984","Nantucket",41.253056,-70.060278,289
"985","Wichita",37.652778,-97.433056,290
"986","Elmira",42.16,-76.891667,290
"987","Addis Ababa",8.977778,38.799444,290
"988","Greenville",33.477222,-90.985,290
"989","Charlottesville",38.138611,-78.452778,291
"990","Muscle Shoals",34.746389,-87.61,291
"991","Tulsa",36.198333,-95.888056,291
"992","Medford",42.374167,-122.87361,291
"993","Khatanga",71.978056,102.4925,291
"994","Cartagena",10.4425,-75.513056,291
"995","Bridgetown",13.074722,-59.4925,291
"996","Basra",30.549167,47.662222,292
"997","Khajuraho Group of Monuments",24.817222,79.918611,292
"998","Bhavnagar",21.752222,72.185278,292
"999","Prescott",34.654444,-112.41972,292
"1000","Puebla",19.158056,-98.371389,292
"1001","San José",9.993889,-84.208889,292
"1002","Aurangabad",19.862778,75.398056,293
"1003","Jabalpur",23.177778,80.051944,293
"1004","Kingston",17.935556,-76.7875,293
"1005","Mashhad",36.234167,59.645,294
"1006","Jessore",23.183889,89.160833,294
"1007","Saidpur",25.759167,88.908889,294
"1008","Cayo Coco",22.461111,-78.328333,294
"1009","Podkamennaya Tunguska",61.593056,90.0025,294
"1010","Agatti Island",10.823611,72.176111,294
"1011","Victoria",28.8525,-96.918611,294
"1012","Rafha",29.626389,43.490556,295
"1013","McCook",40.207778,-100.59278,295
"1014","Veracruz",19.145833,-96.187222,295
"1015","Bharatpur",27.678056,84.428056,295
"1016","Bhuj",23.287778,69.670278,295
"1017","Port-au-Prince",18.58,-72.2925,295
"1018","Chadron",42.835,-103.09861,295
"1019","Sacramento",38.695556,-121.59083,295
"1020","Alliance",42.051944,-102.80778,295
"1021","Phuket City",8.112222,98.305278,296
"1022","Bagdogra",26.681111,88.328611,296
"1023","Malé",4.191667,73.529167,296
"1024","Santo Domingo",18.429722,-69.668889,296
"1025","Erie",42.081944,-80.176111,297
"1026","Chongqing",29.719444,106.641944,297
"1027","Rochester",43.910278,-92.496667,298
"1028","Alamosa",37.4375,-105.86639,298
"1029","Albuquerque",35.040556,-106.60944,298
"1030","Salina",38.790833,-97.652222,298
"1031","El Paso",31.8025,-106.39833,298
"1032","Nairobi",-1.319167,36.927778,299
"1033","Ordos City",39.492222,109.863056,299
"1034","Zhob",31.358333,69.463611,299
"1035","Saint Croix",17.701944,-64.798611,299
"1036","Dera Ghazi Khan",29.960556,70.485278,300
"1037","Lüliang",37.681389,111.1425,300
"1038","Aguadilla",18.495,-67.129444,300
"1039","San Luis Potosí",22.254167,-100.93083,300
"1040","Lensk",60.722778,114.821944,300
"1041","Columbia",33.938889,-81.119444,300
"1042","Port Blair",11.641111,92.729722,300
"1043","Changchun",43.996111,125.685278,300
"1044","Provo",40.218889,-111.7225,300
"1045","Quetta",30.251389,66.937778,301
"1046","Villahermosa",17.996944,-92.8175,301
"1047","Pueblo",38.289167,-104.49667,301
"1048","Siddharthanagar",27.505833,83.416389,301
"1049","Newport News",37.131944,-76.493056,302
"1050","Biratnagar",26.4825,87.266667,302
"1051","Dibrugarh",27.483333,95.016667,302
"1052","Taiyuan",37.746944,112.628333,303
"1053","Kuantan",3.780833,103.209444,303
"1054","Reynosa",26.008889,-98.228611,303
"1055","Khujand",40.215278,69.694722,303
"1056","Winnipeg",49.91,-97.24,303
"1057","Accra",5.605278,-0.166667,304
"1058","Chiang Rai Province",19.952222,99.883056,304
"1059","Ogdensburg",44.681944,-75.465833,304
"1060","Bangor",44.8075,-68.828056,304
"1061","Scottsbluff",41.874167,-103.59556,304
"1062","Janakpur",26.708889,85.924167,304
"1063","Melbourne",28.102778,-80.645278,304
"1064","El Centro",32.835,-115.57472,304
"1065","Shenyang",41.639722,123.483333,304
"1066","Yantai",37.657222,120.987222,304
"1067","Daytona Beach",29.18,-81.058056,305
"1068","Dodge City",37.760278,-99.964167,305
"1069","Aguascalientes",21.705556,-102.31778,305
"1070","Rajkot",22.309167,70.779444,305
"1071","Vernal",40.443333,-109.51083,305
"1072","Tijuana",32.541111,-116.97028,305
"1073","Kalamazoo",42.235,-85.551944,305
"1074","Lansing",42.778611,-84.587222,305
"1075","Saginaw",43.531944,-84.0825,305
"1076","Gaya",24.744444,84.951111,306
"1077","Phitsanulok",16.783056,100.279167,306
"1078","Valdosta",30.7825,-83.276667,306
"1079","Westchester County, New York",41.066944,-73.7075,306
"1080","Penang",5.297222,100.276667,306
"1081","Al-`Ula",26.489722,38.105278,306
"1082","Pantnagar",29.031944,79.473611,306
"1083","Spokane",47.617222,-117.54,306
"1084","Eugene",44.124722,-123.21194,306
"1085","Havana",22.990278,-82.407778,307
"1086","Traverse City",44.741389,-85.582222,307
"1087","Mohenjodaro",27.335278,68.143056,307
"1088","Palenque",17.533889,-91.984722,307
"1089","Lagos",6.5775,3.321111,307
"1090","Tezpur",26.706667,92.778333,307
"1091","Seoul",37.469167,126.450556,307
"1092","Mexicali",32.630556,-115.24167,307
"1093","Conakry",9.576944,-13.611944,308
"1094","Surat Thani Province",9.136111,99.139167,308
"1095","Cedar Rapids",41.884722,-91.710833,308
"1096","Dalian",38.965556,121.538611,308
"1097","Pokhara",28.200556,83.981389,308
"1098","Hermosillo",29.095833,-111.04778,308
"1099","Siborong-Borong",2.259722,98.9875,308
"1100","Bushehr",28.949444,50.830278,308
"1101","Yinchuan",38.320999,106.389782,308
"1102","Santa Ana",33.675556,-117.86833,308
"1103","Sanya",18.302778,109.412222,308
"1104","Minot",48.259444,-101.28028,308
"1105","Shanghai",31.143333,121.805278,309
"1106","Saint Lucia",13.733333,-60.9525,309
"1107","Guangzhou",23.3925,113.298889,309
"1108","Johor Bahru",1.638889,103.670278,310
"1109","Cozumel",20.521667,-86.936944,310
"1110","Santiago de los Caballeros",19.406111,-70.604722,310
"1111","Zacatecas",22.897222,-102.68694,310
"1112","Kota Bharu",6.1675,102.291111,310
"1113","Langkawi",6.338611,99.732222,310
"1114","Alor Setar",6.194444,100.400833,310
"1115","Kuala Terengganu",5.381389,103.104722,310
"1116","Padang",-0.788734,100.281657,310
"1117","Hong Kong",22.308889,113.914722,310
"1118","State College",40.850556,-77.847222,310
"1119","Hat Yai",6.932778,100.395,311
"1120","Cox's Bazar",21.452222,91.963889,311
"1121","Narathiwat Province",6.523333,101.744722,311
"1122","Luoyang",34.741389,112.389444,311
"1123","Tepic",21.419444,-104.8425,311
"1124","Sault Ste. Marie",46.485,-84.509444,311
"1125","Puerto Vallarta",20.68,-105.25417,311
"1126","Colima",19.276944,-103.5775,311
"1127","Jining",35.293056,116.346667,311
"1128","Chumphon Province",10.711389,99.361667,312
"1129","Udon Thani",17.386389,102.788333,312
"1130","Kerman",30.274444,56.951111,312
"1131","Reno",39.499167,-119.76806,312
"1132","Pekanbaru",0.460833,101.444444,312
"1133","Sarnia",42.999444,-82.308889,312
"1134","Entebbe",0.0425,32.443611,313
"1135","Nakhon Si Thammarat Province",8.539722,99.944722,313
"1136","Torreón",25.568333,-103.41056,313
"1137","Tabriz",38.133889,46.235,313
"1138","Labuan",5.297222,115.2525,313
"1139","Karamay",45.466111,84.953889,314
"1140","Chengdu",30.578611,103.947222,314
"1141","Paducah",37.060278,-88.773056,314
"1142","Wilkes-Barre",41.338611,-75.723333,314
"1143","Diu",20.713889,70.921667,314
"1144","Fayetteville",36.281053,-94.304181,314
"1145","Korhogo",9.387222,-5.557222,314
"1146","Culiacán",24.764444,-107.47472,314
"1147","Da Lat",11.75,108.366667,315
"1148","Ghulja",43.955278,81.328889,315
"1149","Khon Kaen",16.464444,102.782222,315
"1150","Durango",24.124167,-104.52806,315
"1151","Santiago de Querétaro",20.617222,-100.18556,315
"1152","Phnom Penh",11.546667,104.844167,315
"1153","Gwadar",25.233333,62.329444,315
"1154","Moline",41.448611,-90.5075,315
"1155","Harbin",45.623333,126.250278,316
"1156","Dayton",39.9025,-84.219444,316
"1157","Kano",12.0475,8.524722,316
"1158","Chetumal",18.504722,-88.326944,316
"1159","Grand Cayman",19.292778,-81.357778,316
"1160","Fargo",46.920556,-96.815833,316
"1161","Santa Rosa",38.510556,-122.81028,316
"1162","San-Pédro, Ivory Coast",4.746667,-6.660833,316
"1163","Santa Barbara",34.426111,-119.84028,316
"1164","Hangzhou",30.229444,120.434444,317
"1165","Kullu",31.876667,77.154444,317
"1166","Loei Province",17.439167,101.721944,317
"1167","Duluth",46.842222,-92.193611,317
"1168","Lubbock",33.663611,-101.82278,317
"1169","Banda Aceh",5.523611,95.420278,317
"1170","London",43.035556,-81.153889,317
"1171","Greater Sudbury",46.625,-80.798889,317
"1172","San José del Cabo",23.151944,-109.72111,317
"1173","Ouagadougou",12.353333,-1.5125,317
"1174","Nanjing",31.741944,118.861944,317
"1175","Porbandar",21.648611,69.657222,318
"1176","Staunton, Virginia",38.261944,-78.898611,318
"1177","Ubon Ratchathani Province",15.251389,104.870278,318
"1178","Acapulco",16.756944,-99.753889,318
"1179","Ixtapa",17.601667,-101.46056,318
"1180","Morelia",19.85,-101.02556,318
"1181","Nakhon Phanom Province",17.385278,104.641944,318
"1182","Belleville",38.541111,-89.848889,318
"1183","Moab",38.760833,-109.7475,319
"1184","Springfield",37.245556,-93.388611,319
"1185","Miri",4.325278,113.988333,319
"1186","Gilgit",35.918889,74.333611,319
"1187","Shillong",25.703611,91.9775,319
"1188","Providenciales",21.773611,-72.265833,319
"1189","Tampico",22.296389,-97.865833,319
"1190","Sohar",24.386111,56.625556,320
"1191","Liberal",37.044167,-100.96,320
"1192","Lanzhou",36.516667,103.616667,320
"1193","Bintulu",3.124167,113.019722,320
"1194","Chihuahua",28.702778,-105.96444,320
"1195","Najaf",31.989722,44.404167,321
"1196","Taipei",25.077778,121.232778,321
"1197","Sukhothai Province",17.237778,99.818333,321
"1198","Macau",22.149444,113.591667,321
"1199","North Bay",46.363611,-79.422778,321
"1200","Mérida",20.936944,-89.657778,321
"1201","Grand Junction",39.123333,-108.52583,321
"1202","Ipoh",4.569167,101.093056,321
"1203","Palembang",-2.898333,104.7,321
"1204","Pattaya",12.679722,101.005,322
"1205","Ranong Province",9.7775,98.585556,322
"1206","Aizawl",23.838889,92.620278,322
"1207","La Paz",24.072778,-110.3625,322
"1208","Niamey",13.481111,2.176667,322
"1209","Gainesville",29.69,-82.271667,322
"1210","Roi Et Province",16.116667,103.773889,322
"1211","Buriram Province",15.226667,103.251111,322
"1212","Tobago",11.149722,-60.832222,322
"1213","Kandla",23.112778,70.100556,323
"1214","Changzhou",31.919444,119.778333,323
"1215","Medan",3.637778,98.871944,323
"1216","Key West",24.556111,-81.759444,323
"1217","Huatulco",15.775278,-96.2625,323
"1218","Bodaybo",57.866389,114.242222,323
"1219","Nan Province",18.807778,100.783333,323
"1220","Oaxaca",17.002778,-96.725,323
"1221","Rasht",37.323333,49.617778,323
"1222","Hefei",31.991111,116.989167,323
"1223","Timmins",48.569722,-81.376667,323
"1224","Wuhan",30.783889,114.208056,324
"1225","Guatemala City",14.584444,-90.527222,324
"1226","Kuching",1.484167,110.343889,324
"1227","Thunder Bay",48.371944,-89.323889,324
"1228","Pontianak",-0.150833,109.403889,324
"1229","Sihanoukville Province",10.579722,103.636944,324
"1230","Denpasar",-8.748056,115.167222,324
"1231","Bristol",36.475278,-82.4075,324
"1232","St. John s",47.618611,-52.751944,325
"1233","Bhadrapur, Mechi",26.570556,88.080278,325
"1234","Sakon Nakhon",17.195278,104.118611,325
"1235","Hargeisa",9.513889,44.083889,326
"1236","Ho Chi Minh City",10.818889,106.651944,326
"1237","Phrae Province",18.131667,100.164722,326
"1238","Green Bay",44.485556,-88.133889,326
"1239","Appleton",44.266667,-88.516667,326
"1240","Dimapur",25.8825,93.774444,326
"1241","Changzhi",36.2475,113.125833,326
"1242","Lower Prince's Quarter",18.040833,-63.108889,326
"1243","Nanchang",28.863889,115.902222,326
"1244","Peoria",40.664167,-89.693333,326
"1245","Rajshahi",24.437222,88.616389,327
"1246","Dongying",37.507778,118.789444,327
"1247","College Station",30.588611,-96.363889,327
"1248","Anshan",41.105556,122.856111,327
"1249","Bandar Seri Begawan",4.944167,114.928333,327
"1250","Jorhat",26.731667,94.175556,327
"1251","Ciudad Obregón",27.392778,-109.83306,327
"1252","Da Nang",16.043889,108.199444,328
"1253","San Juan",18.439444,-66.001944,328
"1254","Sibu",2.264167,111.9825,328
"1255","Ottawa",45.3225,-75.669167,328
"1256","Columbus",32.514444,-84.940278,328
"1257","Holguín",20.785556,-76.315,328
"1258","Camagüey",21.420278,-77.8475,328
"1259","Hanoi",21.221111,105.807222,328
"1260","Fredericton",45.868889,-66.53,328
"1261","Antigua",17.136667,-61.792778,329
"1262","São Paulo",-23.008056,-47.134722,329
"1263","Linyi",35.049444,118.411944,329
"1264","Lianyungang",34.571944,118.873889,329
"1265","Shijiazhuang",38.280556,114.697222,329
"1266","Baotou",40.560556,109.996389,329
"1267","Panama City",30.357778,-85.798889,329
"1268","Yangon",16.907222,96.133333,329
"1269","Sulaymaniyah",35.5625,45.315833,330
"1270","Korla",41.61511,86.141517,330
"1271","Ningbo",29.826667,121.461944,330
"1272","Puerto Plata",19.757778,-70.57,330
"1273","Plattsburgh",44.6525,-73.468889,330
"1274","Alpena",45.078056,-83.560278,330
"1275","Yiwu",29.345,120.0325,330
"1276","Jakarta",-6.125556,106.655833,330
"1277","Trang",7.508611,99.615833,331
"1278","Saint John",45.320556,-65.882222,331
"1279","Imphal",24.76,93.896667,331
"1280","Tallahassee",30.391667,-84.349722,331
"1281","Vancouver",49.193889,-123.18444,331
"1282","Kashgar",39.5425,76.02,332
"1283","Bole",44.895833,82.3,332
"1284","Jinghong",21.973056,100.763056,332
"1285","Nanning",22.608333,108.1725,332
"1286","Kota Kinabalu",5.937222,116.053056,332
"1287","Guilin",25.218056,110.039167,332
"1288","Altay Prefecture",47.750556,88.085833,332
"1289","Zhengzhou",34.519444,113.841111,332
"1290","Kulob",37.988333,69.805278,332
"1291","Phú Quốc",10.16861,103.993153,332
"1292","Skardu",35.333056,75.546389,332
"1293","Ukunda",-4.296667,39.571389,332
"1294","Freeport",26.558611,-78.695556,333
"1295","Bijie",27.267093,105.471628,333
"1296","Hays",38.850278,-99.275556,333
"1297","Redmond",44.254167,-121.15,333
"1298","Sioux Falls",43.581944,-96.741944,333
"1299","Martha's Vineyard",41.393333,-70.6125,333
"1300","Evansville",38.036944,-87.5325,333
"1301","Xiamen",24.544167,118.127778,334
"1302","Kuqa County",41.681983,82.873771,334
"1303","Chennai",12.994444,80.180556,334
"1304","Yichang",30.556944,111.479722,334
"1305","Wenzhou",27.913056,120.852222,334
"1306","Siem Reap",13.410556,103.812778,334
"1307","Semarang",-6.971389,110.374167,334
"1308","Tawau",4.313333,118.121944,334
"1309","Bouaké",7.736944,-5.071111,334
"1310","Saarbrücken",49.214722,7.110556,335
"1311","Daqing",46.75,125.139167,335
"1312","Mae Sot District",16.699722,98.543611,335
"1313","Al Ain",24.261667,55.609167,335
"1314","Port",19.433611,37.234167,335
"1315","Xining",36.528611,102.040278,336
"1316","Guayaquil",-2.1575,-79.883611,336
"1317","Gulfport",30.407222,-89.07,336
"1318","Laramie",41.311944,-105.675,336
"1319","Qianjiang District",29.514722,108.831667,336
"1320","Tacheng Prefecture",46.672778,83.341111,336
"1321","Turaif",31.692778,38.731111,336
"1322","Ulan Hot",46.194722,122.008333,336
"1323","Bandung",-6.900556,107.576389,336
"1324","Sun Valley",43.505556,-114.29722,336
"1325","Qurayyat",31.411944,37.279444,336
"1326","Lampang Province",18.272222,99.504167,337
"1327","Vientiane",17.988333,102.563333,337
"1328","Fortaleza",-3.776389,-38.5325,337
"1329","Mazatlán",23.161389,-106.26611,337
"1330","Baton Rouge",30.533056,-91.149722,337
"1331","Bozeman",45.7775,-111.15306,337
"1332","Belize City",17.539167,-88.308333,337
"1333","Tapachula",14.794444,-92.37,338
"1334","Santa Fe",35.616667,-106.08333,338
"1335","Presque Isle",46.688889,-68.044722,338
"1336","Pasco",46.266667,-119.11667,338
"1337","Nepalgunj",28.103611,81.666944,338
"1338","Saint Martin (Island)",18.100833,-63.049167,338
"1339","Turukhansk",65.797778,87.935556,338
"1340","Huaihua",27.441389,109.700278,339
"1341","Missoula",46.916389,-114.09056,339
"1342","North Platte",41.131111,-100.69306,339
"1343","Sandakan",5.901389,118.061111,339
"1344","Shenzhen",22.639167,113.810556,339
"1345","Santa Maria",34.898889,-120.4575,339
"1346","Fuyang",32.880833,115.733611,340
"1347","Corpus Christi",27.770278,-97.501111,340
"1348","Sydney",46.161389,-60.047778,340
"1349","Nantong",32.072222,120.980278,340
"1350","Moncton",46.106944,-64.6925,340
"1351","Yogyakarta",-7.788056,110.431667,341
"1352","Datong",40.062322,113.479176,341
"1353","Praya, Lombok",-8.757222,116.276667,341
"1354","Lomé",6.165556,1.254444,342
"1355","Cotonou",6.357222,2.384444,342
"1356","Tokyo",35.764722,140.386389,342
"1357","Charleston",32.898611,-80.040556,342
"1358","Hotan",37.038056,79.865,343
"1359","Haiphong",20.819444,106.725,343
"1360","Ko Samui",9.550278,100.0625,343
"1361","Charlottetown",46.289167,-63.125556,343
"1362","Benghazi",32.096667,20.269444,343
"1363","Eldoret",0.404722,35.238889,343
"1364","Bissau",11.894722,-15.653611,344
"1365","Surabaya",-7.379722,112.786944,344
"1366","Aksu City",41.262778,80.291944,345
"1367","Fuzhou",25.935,119.663333,345
"1368","Yangzhou",32.563056,119.718889,345
"1369","Huai an",33.7875,119.127778,345
"1370","Baishan",42.065,127.6025,345
"1371","Nowshahr",36.663333,51.464722,345
"1372","Sanandij",35.250833,47.011111,345
"1373","Ramsar, Mazandaran",36.909167,50.68,345
"1374","Kingston",44.225278,-76.596944,345
"1375","Edmonton",53.3075,-113.58611,345
"1376","Yanji",42.882778,129.451389,345
"1377","Tan-Tan",28.448333,-11.161389,345
"1378","Kermanshah",34.348056,47.156667,345
"1379","Shantou",23.549752,116.509528,346
"1380","Wausau",44.783333,-89.666667,346
"1381","Asmara",15.291944,38.910556,346
"1382","Nuevo Laredo",27.443889,-99.570556,346
"1383","Porto Alegre",-29.994444,-51.171389,347
"1384","Baise",23.72,106.960278,348
"1385","Buon Ma Thuot",12.668333,108.120278,348
"1386","Nueva Gerona",21.834722,-82.783889,348
"1387","Cabinda",-5.597222,12.188056,348
"1388","Gan",-0.693333,73.155556,348
"1389","Bathurst",47.629722,-65.738889,348
"1390","Puerto Escondido, Oaxaca",15.876944,-97.089167,348
"1391","Bimini",25.7,-79.264722,348
"1392","Ciudad del Carmen",18.653333,-91.801111,348
"1393","Manila",14.508611,121.019444,349
"1394","Agartala",23.886944,91.240556,349
"1395","Tangshan",39.719444,117.993333,349
"1396","Mae Hong Son Province",19.301667,97.975,350
"1397","Chaoyang, Liaoning",41.541389,120.433889,350
"1398","Matamoros",25.77,-97.525278,350
"1399","Urmia",37.662222,45.063611,350
"1400","Xiangyang",32.150556,112.290833,351
"1401","Jamnagar",22.465556,70.0125,351
"1402","Xingyi, Guizhou",25.085556,104.959444,351
"1403","Nanyang",32.981111,112.615556,351
"1404","Saint Joseph Parish",15.546944,-61.3,351
"1405","Yazd",31.901111,54.281944,351
"1406","Xuzhou",34.058856,117.556317,351
"1407","Minatitlán",18.103333,-94.580556,351
"1408","Hancock",47.168333,-88.489167,351
"1409","Enshi City",30.321111,109.485278,352
"1410","Thief River Falls",48.066667,-96.183333,352
"1411","Salvador",-12.911111,-38.331111,352
"1412","Campeche",19.816667,-90.500278,352
"1413","Meizhou",24.264167,116.098333,353
"1414","Hue",16.400833,107.703056,353
"1415","Qui Nhơn",13.953889,109.043333,353
"1416","Kisumu",-0.085556,34.729722,353
"1417","Hua Hin District",12.630278,99.953333,353
"1418","Los Mochis",25.685278,-109.08083,353
"1419","Guiyang",26.538611,106.800833,353
"1420","Chitral",35.886667,71.800556,354
"1421","Xilinhot",43.915556,115.963333,354
"1422","Mont-Joli",48.608611,-68.208056,354
"1423","Chifeng",42.16,118.840833,354
"1424","Saint-Denis",-20.887222,55.510278,355
"1425","Zhanjiang",21.215278,110.358333,355
"1426","Manzhouli",49.566667,117.330556,355
"1427","Yancheng",33.426111,120.203056,355
"1428","Eau Claire",44.865833,-91.484167,355
"1429","La Crosse",43.878889,-91.256667,356
"1430","Qingyang",35.801908,107.600058,356
"1431","Sri Jayawardenepura Kotte",6.905556,79.909167,357
"1432","Birjand",32.893889,59.288611,357
"1433","Tuy Hòa",13.049444,109.333611,357
"1434","Helena",46.606944,-111.98278,357
"1435","Piedras Negras",28.6275,-100.53528,358
"1436","Poza Rica",20.601944,-97.463056,358
"1437","Heihe",50.171667,127.309444,358
"1438","Ciudad Victoria",23.703333,-98.956389,358
"1439","Nha Trang",11.998056,109.219167,358
"1440","Deer Lake",49.210833,-57.391389,359
"1441","Medellín",6.164444,-75.423056,359
"1442","Juba",4.871944,31.601111,359
"1443","Brasília",-15.871111,-47.918611,359
"1444","Shahrekord",32.297199,50.842201,359
"1445","Vitim, Sakha Republic",59.881667,111.045556,359
"1446","Zhaotong",27.325833,103.754722,360
"1447","Lhasa",29.298056,90.912222,360
"1448","Trat Province",12.274444,102.318889,360
"1449","Willemstad",12.188889,-68.959722,360
"1450","Quanzhou",24.795556,118.588056,360
"1451","Killeen",31.067222,-97.828889,360
"1452","Cape Town",-33.964722,18.601667,360
"1453","Mandalay",21.702222,95.978056,361
"1454","Yichun, Heilongjiang",47.751389,129.017778,361
"1455","St. George",37.090556,-113.59306,361
"1456","Ponce",18.008333,-66.563056,362
"1457","Ixtepec, Oaxaca",16.448889,-95.093889,362
"1458","Igarka",67.433333,86.633333,362
"1459","Liberia",10.593333,-85.544444,362
"1460","Weihai",37.187222,122.228889,363
"1461","Ardabil",38.325556,48.424167,363
"1462","Lamu",-2.2525,40.913056,363
"1463","Tonghua",42.0503,125.7381,363
"1464","N Djamena",12.133611,15.033889,363
"1465","Tanjung Pandan",-2.745833,107.755,363
"1466","Kalibo",11.684444,122.381111,363
"1467","Boise",43.564444,-116.22278,363
"1468","Cayenne",4.819722,-52.360556,363
"1469","Changde",28.918611,111.640833,364
"1470","Goiânia",-16.631944,-49.220556,364
"1471","Jixi",45.2925,131.191944,364
"1472","Sault Sainte Marie",46.250833,-84.4725,364
"1473","Zhuhai",22.006667,113.376111,364
"1474","Yakima",46.568056,-120.54083,364
"1475","Lijiang",26.674167,100.243611,365
"1476","Sabzevar",36.168611,57.596389,365
"1477","Changsha",28.193611,113.217778,365
"1478","Rhinelander",45.631111,-89.4675,365
"1479","Turpan",43.030278,89.097222,366
"1480","Wenatchee",47.398889,-120.20722,366
"1481","Bogotá",4.701667,-74.146944,366
"1482","Taichung",24.265,120.620833,366
"1483","Ilam",33.585556,46.405,366
"1484","Saltillo",25.543889,-100.92833,366
"1485","Sekondi-Takoradi",4.895556,-1.774722,367
"1486","Kumasi",6.714444,-1.590833,367
"1487","Page",36.924167,-111.44778,367
"1488","Wuxi",31.494722,120.429444,368
"1489","Bamako",12.533611,-7.95,368
"1490","Zunyi",27.811111,107.246111,369
"1491","Kearney",40.726667,-99.009167,369
"1492","Brownsville",25.906944,-97.425833,369
"1493","Mudanjiang",44.524167,129.568889,369
"1494","Gorgan",36.911389,54.398056,369
"1495","Mammoth Lakes",37.624444,-118.84056,369
"1496","Lázaro Cárdenas",18.001667,-102.22056,370
"1497","Escanaba",45.720556,-87.095833,370
"1498","Yongzhou",26.341667,111.608889,370
"1499","Khorramabad",33.438611,48.280833,370
"1500","McAllen",26.175833,-98.238611,370
"1501","Baie-Comeau",49.1325,-68.204444,371
"1502","Huntington",38.368333,-82.559167,371
"1503","Rizhao",35.4,119.316667,371
"1504","Laredo",27.543889,-99.461667,371
"1505","Quzhou",28.967222,118.9,372
"1506","Saskatoon",52.170833,-106.69972,372
"1507","Berlevåg",70.871111,29.028889,372
"1508","Grand Forks",47.949167,-97.176111,372
"1509","Pendleton",45.695278,-118.83694,372
"1510","Zahedan",29.473333,60.903333,372
"1511","Val-d Or",48.053333,-77.782778,372
"1512","Misurata",32.321944,15.061389,372
"1513","Malindi",-3.229167,40.101667,372
"1514","Gander",48.947778,-54.56,372
"1515","Belém",-1.379167,-48.476389,372
"1516","Iloilo City",10.83525,122.492709,373
"1517","Saguenay",48.332222,-70.9925,373
"1518","Columbia",38.818056,-92.219722,373
"1519","Anqing",30.5825,117.050278,373
"1520","Qiqihar",47.239722,123.918056,373
"1521","St. Cloud",45.546667,-94.06,373
"1522","Darwin",-12.414722,130.876667,373
"1523","Thoothukudi",8.723333,78.026389,374
"1524","Kelowna",49.956111,-119.37778,374
"1525","São Luís",-2.585278,-44.234167,374
"1526","Midland",31.9425,-102.20194,374
"1527","Makassar",-5.061667,119.554167,374
"1528","Đồng Hới",17.515278,106.590833,374
"1529","Kigali",-1.968611,30.139444,375
"1530","Yuncheng",35.116389,111.033611,375
"1531","Rio de Janeiro",-22.910556,-43.163056,375
"1532","Uberlândia",-18.882778,-48.225556,375
"1533","Tongren",27.883333,109.308333,375
"1534","Hami",42.840833,93.670833,375
"1535","Rock Springs",41.594722,-109.06556,375
"1536","Zhoushan",29.934722,122.361944,376
"1537","Hailar",49.208611,119.816667,376
"1538","Pullman",46.743611,-117.11111,376
"1539","Zhangjiajie",29.104444,110.443056,376
"1540","Treasure Cay",26.745278,-77.391389,376
"1541","Santa Clara",22.492222,-79.943611,376
"1542","Pleiku",14.004444,108.017222,377
"1543","Jackson",43.607222,-110.73778,377
"1544","Curitiba",-25.528611,-49.175833,378
"1545","Hengyang",26.723889,112.618333,378
"1546","Chu Lai",15.4075,108.707222,378
"1547","Linfen",36.039722,111.491667,378
"1548","Bayannur",40.926389,107.738889,378
"1549","Rosario",-32.903611,-60.784444,378
"1550","Jiamusi",46.843333,130.465278,379
"1551","Silver City",32.6325,-108.15639,379
"1552","Ithaca",42.491111,-76.460833,380
"1553","Rạch Giá",9.958333,105.133333,380
"1554","Jiayuguan City",39.857222,98.341389,380
"1555","Saint Kitts",17.311111,-62.718611,380
"1556","Angeles",15.186111,120.560278,381
"1557","Idaho Falls",43.514444,-112.07083,381
"1558","Marquette",46.353611,-87.395278,381
"1559","Port of Spain",10.595278,-61.337222,381
"1560","Barisal",22.801111,90.301111,381
"1561","Tamale",9.557222,-0.863333,382
"1562","Campo Grande",-20.468611,-54.6725,382
"1563","Great Falls",47.481944,-111.37056,382
"1564","Beihai",21.539444,109.293889,382
"1565","Sari",36.635833,53.193611,382
"1566","Diqing Tibetan Autonomous Prefecture",27.791667,99.678056,383
"1567","Cebu",10.3075,123.979444,383
"1568","Tacloban",11.2275,125.027778,383
"1569","Osaka",34.427222,135.244167,383
"1570","Bismarck",46.772222,-100.74583,383
"1571","Kulusuk",65.573333,-37.134167,383
"1572","Marsh Harbour",26.511389,-77.083611,383
"1573","Luang Prabang",19.897778,102.160833,384
"1574","Busan",35.176667,128.9425,384
"1575","Cayman Brac",19.686944,-79.882778,384
"1576","Florianópolis",-27.670556,-48.547222,384
"1577","Liuzhou",24.207778,109.391389,384
"1578","Gunnison",38.535556,-106.93306,384
"1579","Ji an",26.857778,114.736389,384
"1580","Jeju City",33.511389,126.493056,385
"1581","Yichun, Jiangxi",27.803333,114.307778,385
"1582","Macon",32.696111,-83.648056,385
"1583","Foshan",23.081667,113.07,385
"1584","Thal",47.485,9.560833,386
"1585","Córdoba",-31.31,-64.208333,386
"1586","Okinawa Island",26.195833,127.645833,386
"1587","Vinh",18.7375,105.670833,386
"1588","Regina",50.429444,-104.65722,386
"1589","Qinhuangdao",39.666389,119.058889,386
"1590","Mahé",-4.674444,55.521944,387
"1591","Kailua",19.738889,-156.04556,387
"1592","Wuyishan, Fujian",27.706944,118.003056,387
"1593","Jinzhou",40.929367,121.28204,387
"1594","Rapid City",44.043056,-103.05694,387
"1595","Cockburn Town",21.445278,-71.145278,387
"1596","South Caicos",21.515833,-71.528611,387
"1597","Malabo",3.755278,8.708611,387
"1598","Roxas, Capiz",11.601111,122.750556,388
"1599","Pierre",44.382778,-100.28583,388
"1600","Guangyuan",32.39,105.693056,388
"1601","Fukuoka",33.585833,130.450556,388
"1602","Santa Marta",11.119722,-74.230556,388
"1603","Governor's Harbour",25.284722,-76.331111,388
"1604","Dunhuang",40.16353,94.808419,389
"1605","Brainerd",46.403333,-94.129722,389
"1606","Tagbilaran",9.660278,123.854167,389
"1607","Tainan",22.950278,120.205833,389
"1608","Mount Kilimanjaro",-3.429444,37.074444,389
"1609","Carlsbad",32.3375,-104.26333,389
"1610","Porto Seguro",-16.438611,-39.080833,389
"1611","Arusha",-3.367222,36.625,390
"1612","Mianyang",31.428889,104.740833,390
"1613","Bandar Lampung",-5.242222,105.178889,390
"1614","Libo County",25.448333,107.960833,390
"1615","Perth",-31.940278,115.966944,390
"1616","Shreveport",32.447222,-93.828889,390
"1617","Lincoln",40.851111,-96.759167,390
"1618","Wuhai",39.7925,106.799444,391
"1619","Roanoke",37.325556,-79.975556,391
"1620","Charleston",38.373056,-81.593056,391
"1621","Dali",25.650278,100.319444,391
"1622","Fort McMurray",56.653333,-111.22194,391
"1623","Điện Biên Phủ",21.4,103.004444,391
"1624","San Luis Obispo",35.236944,-120.64194,391
"1625","Bacolod",10.776667,123.019167,392
"1626","Mayagüez",18.255833,-67.148611,392
"1627","Puerto Princesa",9.742222,118.758611,392
"1628","Ca Mau Province",9.177778,105.1775,392
"1629","Johannesburg",-26.139167,28.246111,392
"1630","Pakse",15.131944,105.781389,393
"1631","Savannakhet",16.560833,104.763889,393
"1632","Hayden",40.483333,-107.22361,393
"1633","Daegu",35.894167,128.658889,393
"1634","Legazpi",13.157222,123.734444,393
"1635","Cauayan, Isabela",16.928889,121.755278,393
"1636","Thanh Hoa Province",19.9025,105.469167,393
"1637","Dumaguete",9.334444,123.3,393
"1638","Tabas",33.667801,56.8927,393
"1639","Ogden",41.196111,-112.01056,394
"1640","Hilo",19.721389,-155.04833,394
"1641","Kaohsiung",22.577222,120.35,395
"1642","Cheongju",36.716667,127.499167,396
"1643","Mohe County",52.916389,122.422222,396
"1644","Vitória, Espírito Santo",-20.258056,-40.286389,396
"1645","Hofuf",25.285278,49.485278,396
"1646","Redding",40.508889,-122.29333,397
"1647","Loreto",25.989167,-111.34833,397
"1648","Jinan",36.857222,117.216111,398
"1649","Albany",31.535556,-84.194444,398
"1650","Columbus",33.4502,-88.590399,398
"1651","Longyan",25.675556,116.745556,398
"1652","Bengkulu",-3.863611,102.339167,398
"1653","Taizhou",28.565278,121.430278,398
"1654","Tobruk",31.855,23.896389,398
"1655","Walla Walla",46.095,-118.28778,398
"1656","Weifang",36.646944,119.118611,399
"1657","Surakarta",-7.516111,110.756944,399
"1658","Cagayan de Oro",8.6125,124.456944,399
"1659","Virac, Catanduanes",13.577222,124.205556,399
"1660","Can Tho",10.083631,105.714527,399
"1661","Douala",4.006111,9.719444,400
"1662","São José do Rio Preto",-20.816667,-49.406389,400
"1663","Cortez",37.303056,-108.62861,400
"1664","Dessie",11.083333,39.716667,400
"1665","Mang City",24.401389,98.532222,400
"1666","Lodwar",3.121667,35.605556,400
"1667","Aspen",39.219167,-106.86722,400
"1668","Mauritius Island",-20.430278,57.683611,401
"1669","Dothan",31.321389,-85.449722,401
"1670","Tuguegarao",17.641667,121.733611,401
"1671","Tengchong",24.937778,98.485556,401
"1672","Zabol",31.098333,61.543889,401
"1673","Mobile",30.691111,-88.242778,401
"1674","Juazeiro do Norte",-7.218611,-39.271389,401
"1675","Brunswick",31.258889,-81.466389,402
"1676","Montgomery",32.300556,-86.393889,402
"1677","Monterey",36.586944,-121.84306,402
"1678","Gwangju",35.126389,126.808889,402
"1679","Alexandria",31.3275,-92.549722,402
"1680","George Town",23.5625,-75.878056,402
"1681","Medicine Hat",50.017222,-110.72306,402
"1682","João Pessoa, Paraíba",-7.148333,-34.950556,403
"1683","Ponta Grossa",-25.18814,-50.142065,403
"1684","Sept-Îles",50.223333,-66.265556,404
"1685","Xiahe County",34.818889,102.620833,404
"1686","Jimma",7.662778,36.818056,404
"1687","Mont-Tremblant",46.409444,-74.78,404
"1688","Yan an",36.636667,109.553333,404
"1689","Rock Sound",24.891667,-76.177778,405
"1690","Côn Sơn Island",8.732222,106.6325,405
"1691","Bakersfield",35.433611,-119.05667,405
"1692","Ganzhou",25.851389,114.775278,405
"1693","Cedar City",37.700833,-113.09889,405
"1694","Bobo-Dioulasso",11.16,-4.330833,405
"1695","Recife",-8.126667,-34.923056,405
"1696","Manaus",-3.038611,-60.049722,405
"1697","Nanchong",30.793889,106.159722,406
"1698","Qiemo",38.149444,85.533056,406
"1699","Malang",-7.926667,112.714444,406
"1700","Tanjung Pinang",0.923889,104.533056,406
"1701","Nagoya",34.858333,136.805278,406
"1702","Mwanza",-2.444444,32.932778,407
"1703","Manzanillo",19.144722,-104.55861,407
"1704","Billings",45.807778,-108.54278,407
"1705","Bonito",-21.247222,-56.4525,407
"1706","Yushu City, Qinghai",32.836424,97.036017,408
"1707","Comox",49.710833,-124.88667,408
"1708","Dipolog",8.604167,123.3425,408
"1709","Grand Island",40.9675,-98.309722,408
"1710","Arcata",40.978056,-124.10861,408
"1711","Pangkal Pinang",-2.163611,106.139167,408
"1712","Davao",7.125278,125.645556,409
"1713","Londrina",-23.333611,-51.13,409
"1714","Shimla",31.0842,77.0662,409
"1715","Ribeirão Preto",-21.134167,-47.774167,409
"1716","Show Low",34.266667,-110,409
"1717","Binghamton",42.208611,-75.979722,409
"1718","Grande Prairie",55.179722,-118.885,409
"1719","Yellowknife",62.468611,-114.44306,409
"1720","Hobbs",32.688333,-103.215,410
"1721","Nuuk",64.190833,-51.678056,410
"1722","Maceió",-9.510833,-35.791667,410
"1723","Natal",-5.768056,-35.376111,410
"1724","Teresina",-5.06,-42.823611,410
"1725","Muan County",34.991389,126.382778,411
"1726","Zhongwei",37.572778,105.151389,411
"1727","Barcelona",10.107222,-64.689167,411
"1728","San Jose, Occidental Mindoro",12.361389,121.046667,411
"1729","Dazhou",31.131944,107.430556,411
"1730","Surigao City",9.760833,125.481111,411
"1731","Monroe",32.510833,-92.037778,412
"1732","Magong",23.568611,119.628333,412
"1733","Kalispell",48.310556,-114.25611,412
"1734","Bojnord",37.490833,57.309167,412
"1735","Lake Charles",30.126111,-93.223333,412
"1736","Saint Barthélemy",17.904444,-62.843611,412
"1737","International Falls",48.566111,-93.403056,412
"1738","Lethbridge",49.629722,-112.79028,412
"1739","Cranbrook",49.610833,-115.78222,412
"1740","Saint Vincent",13.156389,-61.150278,412
"1741","Soyo",-6.141111,12.3725,413
"1742","Caticlan",11.924444,121.954167,413
"1743","Camiguin",9.253611,124.706944,413
"1744","Brandon",49.907778,-99.950833,413
"1745","San Pedro Town",17.916667,-87.966667,413
"1746","Little Cayman",19.666667,-80.083333,414
"1747","Fort St. John",56.238056,-120.74028,414
"1748","Ozamiz",8.178611,123.841667,414
"1749","Kamloops",50.702222,-120.44444,414
"1750","Pereira",4.812778,-75.739444,414
"1751","Rouyn-Noranda",48.206111,-78.835556,415
"1752","Marília",-22.196944,-49.926389,415
"1753","Kahului",20.898611,-156.43056,415
"1754","Batam",1.121111,104.118889,415
"1755","Kinshasa",-4.385833,15.444444,416
"1756","Anchorage",61.174444,-149.99639,416
"1757","Mbeya",-8.919722,33.463889,416
"1758","Abbotsford",49.025278,-122.36056,416
"1759","Kauai",21.976389,-159.33611,416
"1760","Mogadishu",2.014722,45.305,417
"1761","Gunsan",35.903889,126.615833,417
"1762","Chapecó",-27.134167,-52.656667,417
"1763","Dalbandin",28.875556,64.403889,417
"1764","Cúcuta",7.9275,-72.511667,417
"1765","Nanded",19.181944,77.322778,417
"1766","Porlamar",10.913056,-63.9675,418
"1767","Maringá",-23.476111,-52.015833,418
"1768","Dangriga",16.9825,-88.231111,418
"1769","Hibbing",47.386667,-92.838889,418
"1770","Jambi City",-1.638056,103.644444,418
"1771","Balikpapan",-1.268333,116.894444,418
"1772","Catumbela",-12.481389,13.486944,419
"1773","Banjarmasin",-3.442222,114.7625,419
"1774","Bemidji",47.509722,-94.933056,419
"1775","Cuiabá",-15.653056,-56.116667,419
"1776","Del Carmen",9.859167,126.015278,420
"1777","Melbourne",-37.673333,144.843333,420
"1778","Montrose",38.505278,-107.89417,420
"1779","Pellston",45.570833,-84.796667,420
"1780","David, Chiriquí",8.391111,-82.435,421
"1781","Zamboanga City",6.9225,122.059722,421
"1782","Santarém",-2.4225,-54.792778,421
"1783","Jingdezhen",29.339167,117.176389,422
"1784","Golmud",36.400556,94.788333,422
"1785","Kunming",25.108597,102.936984,423
"1786","Tegucigalpa",14.060833,-87.217222,423
"1787","Maracaibo",10.558333,-71.727778,423
"1788","Palangka Raya",-2.225,113.942778,423
"1789","Hanzhong",33.133889,107.204722,423
"1790","Asaluyeh",27.379444,52.737778,423
"1791","Barreiras",-12.079167,-45.009444,424
"1792","Hualien County",24.023056,121.617778,424
"1793","Odienné",9.538889,-7.5625,424
"1794","Chizhou",30.740278,117.686667,424
"1795","Tabora",-5.076667,32.831111,425
"1796","Tandag",9.072222,126.171389,425
"1797","Kinmen",24.429722,118.361667,425
"1798","Honolulu",21.327778,-157.92222,425
"1799","Sydney",-33.946111,151.177222,426
"1800","Tablas Island",12.311389,122.08,426
"1801","Butuan",8.950556,125.481389,426
"1802","Bucaramanga",7.126389,-73.184722,426
"1803","Porto Velho",-8.709167,-63.902222,427
"1804","Yeosu",34.842222,127.616944,427
"1805","General Santos",6.06097,125.098298,427
"1806","Cody",44.517778,-109.02611,428
"1807","Cotabato City",7.165278,124.209722,428
"1808","Victoria Falls",-18.095833,25.838889,428
"1809","North Eleuthera",25.475,-76.683611,428
"1810","Ndola",-12.997778,28.666111,428
"1811","Ishigaki, Okinawa",24.396389,124.245,429
"1812","Durban",-29.614444,31.116389,429
"1813","Barranquilla",10.889722,-74.780833,429
"1814","Twin Falls",42.481667,-114.48778,429
"1815","Victoria",48.646944,-123.42583,429
"1816","Nangan, Lienchiang",26.159444,119.958333,429
"1817","Huangshan City",29.732778,118.257222,430
"1818","Mendoza",-32.831667,-68.792778,430
"1819","Puerto Iguazú",-25.737222,-54.473333,430
"1820","Clovis",34.426389,-103.07889,430
"1821","Coxen Hole",16.316944,-86.523056,431
"1822","Vail",39.6425,-106.91778,431
"1823","Uberaba",-19.765,-47.964722,431
"1824","Dire Dawa",9.624722,41.854167,431
"1825","Takamatsu",34.214167,134.015556,432
"1826","Masbate City",12.368889,123.629444,432
"1827","Busuanga, Palawan",12.121389,120.1,432
"1828","Bagan",21.1775,94.930556,433
"1829","Awasa",7.096105,38.400042,433
"1830","Chabahar",25.444444,60.383611,433
"1831","Pagadian",7.83,123.461111,433
"1832","Arba Minch",6.039444,37.590556,433
"1833","Hamadan",34.8675,48.556389,433
"1834","Cali",3.543333,-76.381667,433
"1835","Tarakan, North Kalimantan",3.326667,117.566667,434
"1836","Naga, Camarines Sur",13.585,123.270278,434
"1837","Cascavel",-25.000278,-53.500833,435
"1838","Presidente Prudente, São Paulo",-22.175,-51.424722,435
"1839","Matsu Islands",26.223889,120.002778,435
"1840","Anadyr",64.735,177.741389,435
"1841","Penticton",49.463056,-119.60222,435
"1842","Wanzhou District",30.803889,108.427222,436
"1843","Saga",33.149722,130.302222,436
"1844","Caxias do Sul",-29.196944,-51.1875,436
"1845","Ibaraki",36.178333,140.418056,436
"1846","Labuan Bajo",-8.486667,119.889167,436
"1847","Bima",-8.539722,118.687222,436
"1848","Huambo",-12.809167,15.760833,437
"1849","Bangui",4.397778,18.52,437
"1850","Livingstone",-17.821667,25.822778,437
"1851","Lubumbashi",-11.591389,27.530833,437
"1852","San Salvador Island",24.063333,-74.523889,438
"1853","Jamestown",46.929722,-98.678333,438
"1854","San Miguel de Tucumán",-26.840833,-65.104722,438
"1855","Pocatello",42.909722,-112.59583,438
"1856","Balbala",11.547222,43.159444,439
"1857","Deadman's Cay Settlement",23.178889,-75.093611,439
"1858","Calbayog",12.072778,124.545,439
"1859","Uruapan",19.396667,-102.03917,439
"1860","Windhoek",-22.48,17.470833,439
"1861","Kerteh",4.540833,103.425833,439
"1862","Dumai",1.60919,101.433998,440
"1863","Panzhihua",26.54,101.798056,440
"1864","Yaoundé",3.7225,11.553333,440
"1865","Vitória da Conquista",-14.862778,-40.863056,440
"1866","Marabá, Pará",-5.368611,-49.138056,440
"1867","East London",-33.035556,27.825833,440
"1868","Matsuyama",33.827222,132.699722,441
"1869","Semera",11.786389,40.993056,441
"1870","Sapporo",42.775278,141.692222,442
"1871","Rondonópolis",-16.586944,-54.725,442
"1872","Santiago de Chile",-33.393056,-70.785833,442
"1873","Macapá",0.050556,-51.072222,442
"1874","Aracaju",-10.983889,-37.070278,442
"1875","Blantyre",-15.679167,34.973889,443
"1876","Bosaso",11.275556,49.157778,444
"1877","Taitung County",22.755696,121.100618,444
"1878","Lages",-27.782778,-50.280556,444
"1879","Managua",12.141389,-86.168056,444
"1880","Ilhéus",-14.815833,-39.033333,444
"1881","Fairbanks",64.815,-147.85639,444
"1882","Placencia",16.537222,-88.361111,444
"1883","Shire",14.079444,38.271389,445
"1884","Jijiga",9.333482,42.912614,445
"1885","Gillette",44.3475,-105.54167,446
"1886","Jinju",35.088611,128.070278,446
"1887","George",-34.005556,22.378889,446
"1888","Palmas",-10.291389,-48.356944,447
"1889","Gold Coast",-28.164444,153.504722,447
"1890","Rio Verde, Goiás",-17.833333,-50.955556,448
"1891","Sidney",47.705,-104.19639,448
"1892","Wolf Point",48.094722,-105.57583,448
"1893","Havre",48.544167,-109.75917,448
"1894","Glendive",47.140556,-104.80944,448
"1895","Lubango",-14.924722,13.575,448
"1896","Casper",42.908056,-106.46444,449
"1897","Bariloche",-41.151111,-71.157778,449
"1898","Sibolga",1.555833,98.888889,449
"1899","Kagoshima",31.803333,130.719444,450
"1900","Kangerlussuaq",67.016944,-50.689444,450
"1901","Laoag",18.178056,120.531389,450
"1902","Caracas",10.603056,-66.990556,451
"1903","Menongue",-14.658611,17.721389,451
"1904","North Bend",43.417222,-124.24611,451
"1905","Qeshm",26.751944,55.897222,451
"1906","Mazar-i-Sharif",36.706944,67.209444,452
"1907","Útila",16.112222,-86.883056,452
"1908","Banyuwangi",-8.310278,114.34,452
"1909","Pangkalan Bun",-2.705278,111.673333,452
"1910","Antananarivo",-18.796944,47.478889,453
"1911","Salta",-24.859722,-65.486944,453
"1912","Barrancabermeja",7.024444,-73.806667,453
"1913","Liupanshui",26.608611,104.978333,454
"1914","Culebra",18.3125,-65.303056,454
"1915","Catarman, Northern Samar",12.5025,124.635833,454
"1916","Amarillo",35.219444,-101.70583,454
"1917","Dodoma",-6.170556,35.7525,454
"1918","Namibe",-15.261667,12.147222,454
"1919","Villavicencio",4.167778,-73.613889,454
"1920","Port Elizabeth",-33.985,25.617222,454
"1921","Sampit",-2.499167,112.975,454
"1922","Sendai",38.139722,140.916944,454
"1923","Malacca City",2.263611,102.251944,454
"1924","Elko",40.8275,-115.78139,455
"1925","Manado",1.549167,124.926389,455
"1926","Heho",20.746944,96.791944,455
"1927","Gambela",8.128889,34.563056,455
"1928","Gunungsitoli",1.166944,97.704444,455
"1929","Durango",37.152222,-107.75361,456
"1930","Maputo",-25.920833,32.5725,456
"1931","Mtwara",-10.339167,40.181667,456
"1932","Cayo Largo del Sur",21.616389,-81.546111,456
"1933","Armenia",4.452778,-75.766389,456
"1934","Sigiriya",7.956111,80.728333,457
"1935","Araxá",-19.563333,-46.960278,457
"1936","Waingapu",-9.669167,120.301944,457
"1937","Sinop, Mato Grosso",-11.885,-55.586111,458
"1938","Tawi-Tawi",5.045,119.7425,458
"1939","Glasgow",48.2125,-106.61472,458
"1940","Nanaimo",49.052222,-123.87028,458
"1941","Asosa",10.018611,34.586389,458
"1942","Bloemfontein",-29.092778,26.3025,458
"1943","San Vicente Del Caguan",2.15217,-74.7663,459
"1944","Yopal",5.319167,-72.383889,459
"1945","Jember Regency",-8.242222,113.694444,459
"1946","Araçatuba",-21.141389,-50.424722,461
"1947","Georgetown",6.498611,-58.254167,461
"1948","Evensk",61.921389,159.229722,461
"1949","Montes Claros",-16.706944,-43.818889,461
"1950","Toledo",41.586944,-83.807778,461
"1951","Kitakyushu",33.845833,131.034722,462
"1952","Varginha",-21.59,-45.473889,462
"1953","Lamerd",27.373056,53.188056,462
"1954","Leticia, Amazonas",-4.193611,-69.943056,462
"1955","Tortola",18.444722,-64.543056,463
"1956","Padangsidempuan",1.4,99.43,463
"1957","New Bedford",41.676111,-70.956944,463
"1958","Valledupar",10.435,-73.249444,463
"1959","Wenshan City",23.558056,104.325556,464
"1960","Ketapang",-1.816667,109.963611,464
"1961","Ternate City",0.831389,127.381389,464
"1962","Thandwe",18.460833,94.3,464
"1963","Miyakojima",24.782778,125.295,464
"1964","Caldas Novas",-17.724722,-48.61,465
"1965","Kume Island",26.365278,126.716389,465
"1966","Kendari",-4.081667,122.418333,465
"1967","Mek ele",13.4675,39.533333,465
"1968","Imperatriz",-5.531389,-47.46,465
"1969","Tambolaka",-9.409722,119.244444,465
"1970","Flores",16.915556,-89.869722,467
"1971","Fort Smith",35.336667,-94.3675,467
"1972","Kimberley, Northern Cape",-28.802778,24.765278,467
"1973","Monrovia",6.233889,-10.362222,467
"1974","Montería",8.823611,-75.825833,467
"1975","Arauca",7.068889,-70.736944,467
"1976","Xichang",27.989167,102.184444,468
"1977","Oita",33.479444,131.737222,468
"1978","Hambantota",6.283889,81.123889,468
"1979","Sint Eustatius",17.496389,-62.979444,468
"1980","Sintang Regency",0.063611,111.473333,468
"1981","Valencia",10.149722,-67.928333,469
"1982","Kobe",34.632778,135.223889,470
"1983","Ibagué",4.421111,-75.133611,470
"1984","Marudi",4.179444,114.3275,470
"1985","Manistee",44.273056,-86.252222,471
"1986","Sorriso",-12.479444,-55.672778,471
"1987","Lençóis",-12.483749,-41.275543,471
"1988","Riohacha",11.526111,-72.925833,471
"1989","Crooked Island",22.745556,-74.182222,472
"1990","Loikaw",19.691389,97.214722,472
"1991","Bahir Dar",11.608056,37.321667,472
"1992","Governador Valadares",-18.895278,-41.982222,472
"1993","São Tomé",0.378056,6.712222,472
"1994","Paulo Afonso",-9.400833,-38.250556,472
"1995","Fernando de Noronha",-3.855,-32.423333,473
"1996","Saurimo",-9.689167,20.431667,473
"1997","Mamoudzou",-12.806667,45.280556,473
"1998","Miyazaki",31.877222,131.448611,473
"1999","Hoʻolehua",21.151667,-157.09778,473
"2000","Sittwe",20.132778,92.8725,474
"2001","Libreville",0.458611,9.412222,474
"2002","Ondjiva",-17.043889,15.684722,474
"2003","Kumamoto",32.837222,130.855,474
"2004","Lima",-12.021944,-77.114444,474
"2005","Brazzaville",-4.251667,15.253056,475
"2006","Cyangugu",-2.462222,28.908056,475
"2007","Jinka",5.751605,36.555842,475
"2008","Trelew",-43.210556,-65.270278,475
"2009","Puerto Asís",0.505278,-76.500833,475
"2010","Kupang",-10.171667,123.671111,475
"2011","Niigata",37.955833,139.120833,476
"2012","Simao District",22.794722,100.959167,477
"2013","Inagua",20.975,-73.666944,477
"2014","Lalibela",11.975,38.98,477
"2015","Yola",9.2575,12.430556,477
"2016","Florencia",1.589167,-75.564444,477
"2017","Meulaboh",4.045556,96.249444,478
"2018","Luzhou",28.852778,105.393333,478
"2019","Juneau",58.355,-134.57639,478
"2020","Spring Point",22.441944,-73.970833,478
"2021","Jiuzhaigou County",32.856667,103.683056,479
"2022","Mar del Plata",-37.934167,-57.573333,479
"2023","Praslin",-4.319167,55.691389,479
"2024","Santiago de Cuba",19.969722,-75.835278,480
"2025","Alta Floresta",-9.866111,-56.106111,480
"2026","Três Lagoas",-20.754444,-51.683889,480
"2027","Phonsavan",19.45,103.158333,481
"2028","San Andrés",12.583611,-81.711111,481
"2029","Saba",17.645556,-63.220556,481
"2030","Saravena",6.951944,-71.857222,481
"2031","Tanjung Manis",2.177778,111.201944,481
"2032","Gunung Mulu National Park",4.050556,114.809167,481
"2033","Maumere",-8.640556,122.236944,481
"2034","Nosy Be",-13.311944,48.314722,482
"2035","Lhokseumawe",5.226667,96.950278,482
"2036","Lusaka",-15.330833,28.4525,482
"2037","Waterloo",43.460833,-80.378611,482
"2038","Baoshan, Yunnan",25.053611,99.168056,483
"2039","Parauapebas",-6.117778,-50.003611,483
"2040","San José del Guaviare",2.579722,-72.639444,483
"2041","Moroni",-11.533611,43.271944,484
"2042","Vero Beach",27.655556,-80.418056,484
"2043","Castlegar",49.296389,-117.6325,484
"2044","Long Seridan",3.9775,115.068333,484
"2045","Punta Gorda",16.102222,-88.808333,484
"2046","Olyokminsk",60.400833,120.470833,485
"2047","Kigoma",-4.888056,29.671667,485
"2048","Yibin",28.800278,104.545,486
"2049","Gondar",12.52,37.434167,486
"2050","Plettenberg Bay",-34.088056,23.326667,486
"2051","Buenaventura",3.819722,-76.989722,486
"2052","Cairns",-16.878056,145.748889,486
"2053","Nyingchi",29.305833,94.338611,487
"2054","Villagarzón",0.982222,-76.604167,487
"2055","Saipan",15.118889,145.729444,489
"2056","Ji-Paraná",-10.870833,-61.846944,489
"2057","Palu",-0.918611,119.909722,489
"2058","Lawas",4.849722,115.408056,489
"2059","Kangding",30.144722,101.737778,489
"2060","Chibougamau",49.771944,-74.528056,489
"2061","Corozal, Sucre",9.332778,-75.285556,489
"2062","Bario",3.734722,115.478333,489
"2063","Vieques",18.134722,-65.493611,490
"2064","Hakodate",41.77,140.821944,491
"2065","Tumaco",1.814444,-78.749167,491
"2066","Valença, Bahia",-13.303276,-38.991173,491
"2067","Bonaire",12.131111,-68.268611,491
"2068","Lahad Datu",5.030278,118.328333,492
"2069","Williston",48.179167,-103.64333,492
"2070","Araguaína",-7.228056,-48.240278,493
"2071","Terrace",54.468611,-128.57611,493
"2072","Brisbane",-27.384167,153.1175,493
"2073","Pasto",1.396111,-77.291111,493
"2074","Popayán",2.454444,-76.609444,494
"2075","Quibdó",5.690833,-76.641111,495
"2076","Dickinson",46.8,-102.8,495
"2077","Prince George",53.881944,-122.67583,495
"2078","Samaná",19.269113,-69.737139,495
"2079","Gaborone",-24.555278,25.918333,495
"2080","Dawei Township",14.098333,98.205278,496
"2081","Daocheng County",29.316667,100.06,496
"2082","Myeik, Myanmar",12.439722,98.621389,497
"2083","Abu Simbel",22.375833,31.611667,497
"2084","Bulawayo",-20.0175,28.617778,497
"2085","Mukah",2.906944,112.075,497
"2086","St George's",12.004167,-61.786111,498
"2087","Barra do Garças",-15.85,-52.383333,498
"2088","Foz do Iguaçu",-25.596111,-54.487222,498
"2089","Luang Namtha",20.962222,101.403056,498
"2090","Margate, KwaZulu-Natal",-30.8575,30.343056,498
"2091","Campbell River",49.950833,-125.27056,498
"2092","Waimea",20.001389,-155.66806,499
"2093","Campina Grande",-7.27,-35.896389,500
"2094","Joinville",-26.224444,-48.7975,500
"2095","Passo Fundo",-28.244444,-52.329167,500
"2096","Altamira",-3.253889,-52.253889,500
"2097","Richards Bay",-28.741111,32.092222,500
"2098","Adelaide",-34.945,138.530556,501
"2099","Homalin",24.898611,94.914722,501
"2100","Feira de Santana",-12.200556,-38.907222,501
"2101","Apartadó",7.8125,-76.716667,503
"2102","Sunshine Coast Region",-26.603333,153.091111,503
"2103","Putussibau",0.835556,112.937222,503
"2104","Manizales",5.029722,-75.464722,504
"2105","Neiva, Huila",2.950278,-75.293889,504
"2106","Tefé",-3.383333,-64.724167,504
"2107","Hagåtña",13.483333,144.796111,504
"2108","Paramaribo",5.452778,-55.187778,504
"2109","Kengtung",21.301667,99.636111,505
"2110","Telluride",37.952778,-107.9025,505
"2111","Sumbawa Besar",-8.488056,117.411389,505
"2112","Hiroshima",34.436111,132.919444,505
"2113","Maseru",-29.462222,27.5525,505
"2114","Basco",20.451389,121.98,506
"2115","Resistencia",-27.45,-59.056111,506
"2116","Nevis",17.205556,-62.59,506
"2117","Whitehorse",60.709444,-135.06722,506
"2118","Freetown",8.616389,-13.195556,507
"2119","Ushuaia",-54.843333,-68.295556,507
"2120","Pohang",35.987778,129.420556,508
"2121","Batagay",67.647778,134.693333,508
"2122","Bukoba",-1.3325,31.821944,508
"2123","Loja",-3.995833,-79.371667,509
"2124","Puerto Carreño",6.184722,-67.493056,509
"2125","Hoedspruit, Limpopo",-24.358049,31.039203,509
"2126","Xi An",34.447778,108.753889,510
"2127","Ulsan",35.593611,129.351667,510
"2128","Yoron",27.043889,128.401944,511
"2129","Asahikawa",43.670833,142.4475,512
"2130","Chengguan, Chamdo",30.551111,97.110556,512
"2131","Dingleton",-27.65,23,512
"2132","Pointe-Noire",-4.816111,11.886667,513
"2133","Pietermaritzburg",-29.648889,30.398611,513
"2134","Bujumbura",-3.323889,29.318611,514
"2135","Nelspruit",-25.383056,31.105556,514
"2136","Tofino",49.082222,-125.7725,514
"2137","Pelotas",-31.718333,-52.329722,515
"2138","Cabo San Lucas",22.948431,-109.935864,515
"2139","Ambon, Maluku",-3.710278,128.089167,516
"2140","Ketchikan",55.355556,-131.71389,516
"2141","Myitkyina",25.384167,97.353889,517
"2142","Guri el",5.3175,45.985278,517
"2143","Lincang",23.738889,100.025,518
"2144","Kandy",7.326667,80.641667,518
"2145","Tabatinga",-4.255833,-69.936111,518
"2146","Kapalua",20.963056,-156.67306,518
"2147","Boa Vista",2.846389,-60.69,519
"2148","Bethel",60.779722,-161.83806,519
"2149","Ann",19.77,94.026111,519
"2150","Kalay",23.188889,94.051944,519
"2151","Posadas",-27.385833,-55.970556,519
"2152","Okha",53.516667,142.883333,520
"2153","Tianshui",34.559722,105.86,520
"2154","Auckland",-37.009722,174.791667,520
"2155","Esmeraldas",0.978611,-79.626667,520
"2156","Yamagata",38.411944,140.371389,520
"2157","Walvis Bay",-22.98,14.645278,521
"2158","City of Launceston",-41.545278,147.211111,521
"2159","Puerto Montt",-41.438889,-73.093889,521
"2160","Valdivia",-39.649444,-73.086389,521
"2161","Lago Agrio Canton",0.0925,-76.869444,521
"2162","Tambor",9.739722,-85.016944,521
"2163","Aberdeen",45.453611,-98.425556,522
"2164","Mitú",1.253611,-70.233889,522
"2165","Inírida, Guainía",3.853611,-67.906111,522
"2166","Gaspé",48.775278,-64.478611,523
"2167","Kochi",33.546111,133.669444,524
"2168","Guaymas",27.968889,-110.92528,524
"2169","Amami",28.430556,129.7125,524
"2170","Navegantes",-26.88,-48.651389,525
"2171","Mayaguana",22.379444,-73.013611,527
"2172","Upington",-28.399167,21.260278,527
"2173","Tokushima",34.132778,134.606667,527
"2174","Lloydminster",53.309167,-110.0725,527
"2175","Hohhot",40.851389,111.824167,528
"2176","Mawlamyine",16.444722,97.660556,528
"2177","Santa Rosa Canton",-3.435278,-79.978056,528
"2178","Ballina",-28.833889,153.5625,529
"2179","Santa Cruz de la Sierra",-17.644722,-63.135278,529
"2180","San Salvador de Jujuy",-24.392778,-65.097778,529
"2181","Proserpine",-20.494167,148.553056,529
"2182","Komatsu",36.394722,136.406667,530
"2183","Nyurba",63.296111,118.340833,530
"2184","Lashio",22.977778,97.752222,530
"2185","Canberra",-35.306944,149.195,530
"2186","Iquique",-20.535278,-70.181389,530
"2187","Ipiales",0.861944,-77.671667,530
"2188","Kyaukpyu",19.426389,93.534722,531
"2189","Tachileik",20.482778,99.933333,531
"2190","Francistown",-21.159722,27.474444,531
"2191","Hagerstown",39.708056,-77.729444,531
"2192","Cabo Frio",-22.925,-42.078611,532
"2193","Manta",-0.946111,-80.678889,532
"2194","Pitalito",1.856944,-76.086944,532
"2195","Lilongwe",-13.789444,33.781111,533
"2196","Harare",-17.931944,31.092778,534
"2197","Naypyidaw",19.6225,96.201389,534
"2198","Puerto Francisco de Orellana",-0.462778,-76.986944,534
"2199","Hobart",-42.836111,147.510278,534
"2200","Cuenca",-2.889444,-78.984444,535
"2201","Skukuza",-24.964444,31.590556,535
"2202","Mamuju Regency",-2.588333,119.027778,535
"2203","Ulaangom",49.970556,92.081111,538
"2204","Powell River, British Columbia",49.834167,-124.5,538
"2205","Albury",-36.067778,146.958056,538
"2206","Asunción",-25.239722,-57.519167,538
"2207","Pomalaa",-4.181111,121.615278,538
"2208","Chiayi",23.463333,120.390556,539
"2209","Fuyuan, Heilongjiang",48.197778,134.364444,540
"2210","Rodrigues",-19.757778,63.361111,540
"2211","Punta Arenas",-53.002778,-70.854722,540
"2212","Luena",-11.767222,19.893889,540
"2213","La Romana",18.450833,-68.911944,541
"2214","Wonju",37.438056,127.960278,541
"2215","Lanai",20.785556,-156.95139,541
"2216","Saint-Pierre",46.763333,-56.174444,541
"2217","Sabha",26.986944,14.4725,542
"2218","Suntar",62.185,117.635,543
"2219","Hervey Bay",-25.32,152.880278,543
"2220","Petrolina",-9.3625,-40.569167,543
"2221","Xinyuan County",43.432222,83.382222,544
"2222","Gorontalo",0.637222,122.851389,544
"2223","Armidale",-30.528056,151.617222,544
"2224","Hamilton Island",-20.358056,148.951667,544
"2225","Ras al-Khaimah",25.613611,55.938889,544
"2226","Bau-Bau",-5.4875,122.568889,544
"2227","Ube",33.93,131.278611,545
"2228","Manaung",18.846389,93.683333,545
"2229","Hana",20.795556,-156.01444,545
"2230","Jaguaruna",-28.675278,-49.059444,545
"2231","Arica",-18.348611,-70.338611,546
"2232","Tsushima",34.285,129.330556,546
"2233","Kuito",-12.404444,16.948333,547
"2234","Memanbetsu",43.880556,144.164167,548
"2235","Handan",36.525833,114.425,549
"2236","Wakkanai",45.404167,141.800833,549
"2237","Erenhot",43.423333,112.091111,549
"2238","Lewiston",46.375556,-117.01361,549
"2239","Jayapura",-2.576944,140.516389,550
"2240","Trail",49.055556,-117.60917,550
"2241","Dourados",-22.201389,-54.926667,550
"2242","San Cristóbal Island",-0.910278,-89.6175,550
"2243","Baracoa",20.365278,-74.506111,550
"2244","Obihiro",42.733333,143.216667,551
"2245","Monbetsu",44.303889,143.404167,551
"2246","Wagga Wagga",-35.165278,147.466389,551
"2247","Neuquén",-38.948889,-68.155833,551
"2248","Nakashibetsu",43.5775,144.96,552
"2249","Khamti",25.987778,95.674167,552
"2250","Bathurst",-33.409444,149.651944,552
"2251","Anguilla",18.204722,-63.055,553
"2252","Akita",39.615556,140.218611,553
"2253","Axum",14.146667,38.772778,553
"2254","Cacoal",-11.491208,-61.452609,554
"2255","Coffs Harbour",-30.320556,153.116389,554
"2256","Muang Xay",20.682778,101.993889,554
"2257","Smithers",54.824722,-127.18278,555
"2258","Yonago",35.492222,133.236389,555
"2259","Kudat",6.923333,116.837222,556
"2260","Juiz de Fora",-21.512222,-43.170556,557
"2261","Vilhena",-12.694444,-60.098333,557
"2262","Iki",33.75,129.783333,558
"2263","Stephenville",48.544167,-58.55,558
"2264","Devils Lake",48.115556,-98.908056,558
"2265","Manokwari",-0.891944,134.049167,558
"2266","La Ceiba",15.7425,-86.853056,559
"2267","Corrientes",-27.445556,-58.761944,559
"2268","Verkhnevilyuysk",63.458889,120.268611,560
"2269","Las Piedras",11.780833,-70.151389,560
"2270","Galkayo",6.781389,47.454444,561
"2271","Dikson",73.517778,80.376944,561
"2272","Santa Maria",-29.711389,-53.688056,561
"2273","Butte",45.954722,-112.4975,561
"2274","Mthatha",-31.547778,28.674167,561
"2275","Tamworth",-31.083889,150.846667,562
"2276","Port Macquarie",-31.435556,152.862222,563
"2277","Griffith",-34.253889,146.061667,563
"2278","Yuzhno-Kurilsk",43.961389,145.685556,564
"2279","Yulin",38.357117,109.593031,565
"2280","Abuja",9.006667,7.263056,565
"2281","Beira",-19.796389,34.9075,566
"2282","Osorno",-40.611389,-73.060556,566
"2283","Limbang",4.808056,115.010278,567
"2284","Tongliao",43.5575,122.2,568
"2285","Seronera",-2.457222,34.821944,568
"2286","Hachijō-jima",33.115,139.785833,568
"2287","Polokwane, Limpopo",-23.845278,29.458611,569
"2288","Kotabaru Regency",-3.296111,116.164722,569
"2289","Poso",-1.418333,120.656667,569
"2290","Luwuk",-1.038056,122.772778,569
"2291","Okayama",34.756944,133.855278,570
"2292","Tete",-16.104722,33.640278,571
"2293","La Serena",-29.916389,-71.199444,572
"2294","Shonai",38.812222,139.787222,572
"2295","Bahía Blanca",-38.727222,-62.153333,573
"2296","Cruzeiro do Sul",-7.6,-72.769444,574
"2297","Quesnel",53.026111,-122.51028,575
"2298","Sandspit",53.254444,-131.81389,575
"2299","Bokpyin",11.149167,98.736111,576
"2300","Sao Jose Dos Campos",-23.225577,-45.862098,576
"2301","Ilulissat",69.242778,-51.058056,578
"2302","Deputatsky, Sakha Republic",69.3925,139.890278,578
"2303","Tanjung Redeb",2.155278,117.432778,579
"2304","Moruya",-35.898333,150.146111,579
"2305","Sorong",-0.892386,131.287831,580
"2306","Maun",-19.9725,23.431111,581
"2307","Fukue Island",32.666389,128.832778,581
"2308","Christchurch",-43.489444,172.532222,581
"2309","Toyama",36.648333,137.1875,582
"2310","Wajima",37.2925,136.958889,582
"2311","Calama",-22.498056,-68.908056,584
"2312","Central Java",-7.64506,-109.033997,584
"2313","Antofagasta",-23.444444,-70.445,584
"2314","Copiapó",-27.261667,-70.779167,584
"2315","Yonaguni",24.466944,122.977778,585
"2316","Misawa",40.703333,141.368333,586
"2317","Phalaborwa",-23.936944,31.156111,586
"2318","Comodoro Rivadavia",-45.785278,-67.465556,587
"2319","Iquitos",-3.784722,-73.308889,588
"2320","Port Hardy",50.680556,-127.36667,588
"2321","Hay River",60.839722,-115.78278,590
"2322","Lüderitz",-26.6875,15.242778,590
"2323","Puerto Ordaz and San Felix",8.288611,-62.760278,590
"2324","Cusco",-13.535833,-71.938889,590
"2325","Hanamaki",39.428611,141.135278,590
"2326","Valdez",61.133889,-146.24833,592
"2327","Oranjemund",-28.586667,16.446389,592
"2328","Mildura",-34.229167,142.085556,592
"2329","Happy Valley-Goose Bay",53.319444,-60.410556,593
"2330","Chiclayo",-6.7875,-79.828056,593
"2331","Tarapoto",-6.508611,-76.373333,593
"2332","Izumo",35.413611,132.89,594
"2333","Narrandera",-34.702222,146.512222,594
"2334","Shirahama",33.662222,135.364444,594
"2335","Kenai",60.573056,-151.245,594
"2336","Concepción",-36.772778,-73.063056,594
"2337","Ust-Nera",64.549444,143.110833,595
"2338","Trujillo",-8.084722,-79.109444,595
"2339","Balmaceda",-45.916111,-71.689444,595
"2340","Tahiti",-17.553889,-149.60722,595
"2341","Quito",-0.124131,-78.358543,597
"2342","Ust-Kuyga",70.010556,135.6425,599
"2343","Temuco",-38.926944,-72.646944,599
"2344","Uruguaiana",-29.782222,-57.0375,604
"2345","Williams Lake",52.183056,-122.05417,604
"2346","Kununurra",-15.778056,128.7075,604
"2347","Bella Coola",52.3875,-126.59583,605
"2348","El Calafate",-50.28,-72.053333,605
"2349","Humera",13.833333,36.879444,606
"2350","Cochabamba",-17.421111,-66.177222,607
"2351","Uluru",-25.186111,130.975556,607
"2352","Moree",-29.498889,149.844722,608
"2353","Prince Rupert",54.286111,-130.44472,608
"2354","Pucallpa",-8.378056,-74.574167,608
"2355","Naha",3.683333,125.528056,608
"2356","Piura",-5.205833,-80.616389,608
"2357","Shizuoka",34.796944,138.180833,609
"2358","Taree",-31.888611,152.513889,611
"2359","Mount Gambier",-37.745556,140.785278,611
"2360","Geraldton",-28.796667,114.706389,611
"2361","Dili",-8.546667,125.524722,612
"2362","Burnie",-40.997222,145.726667,613
"2363","Merimbula",-36.908611,149.901389,613
"2364","King Salmon",58.676667,-156.64917,614
"2365","Talara",-4.576667,-81.254167,614
"2366","Maniitsoq",65.4125,-52.939722,615
"2367","Tottori",35.53,134.166667,616
"2368","Ipatinga",-19.470833,-42.4875,618
"2369","Labuha",-0.634722,127.504167,618
"2370","Pyongyang",39.223611,125.67,619
"2371","Quelimane",-17.855556,36.869167,619
"2372","Arequipa",-16.340833,-71.5725,619
"2373","Mackay",-21.171667,149.179722,619
"2374","Nome",64.512222,-165.44528,621
"2375","Devonport",-41.169722,146.430278,622
"2376","Santo Ângelo",-28.282778,-54.170278,622
"2377","Qurghonteppa",37.867222,68.864722,623
"2378","Minamidaito",25.847222,131.263889,623
"2379","Kitadaito",25.944722,131.327222,623
"2380","Guapi",2.57,-77.898333,623
"2381","Odate",40.191944,140.371389,624
"2382","Teixeira de Freitas",-17.524444,-39.669167,624
"2383","Kau",1.184722,127.896111,627
